,City,Cloudiness,Country,Date,Humidity,Lat,Lng,Max Temp,Wind Speed
0,kruisfontein,0,ZA,1573845491,95,-34,24.73,62.46,3.89
1,waipawa,76,NZ,1573845766,71,-39.94,176.59,61,15.99
2,mouzakion,,,,,,,,
3,castro,40,CL,1573845466,55,-42.48,-73.76,60.8,10.29
4,manoel urbano,97,BR,1573845767,93,-8.84,-69.26,78.46,3.13
5,mataura,61,NZ,1573845472,93,-46.19,168.86,51.01,5.01
6,saskylakh,92,RU,1573845472,96,71.97,114.09,-14.49,7.4
7,yershov,,,,,,,,
8,ushuaia,75,AR,1573845459,50,-54.81,-68.31,55.4,11.41
9,kapaa,75,US,1573845431,88,22.08,-159.32,77,4.7
10,nelson bay,40,AU,1573845483,82,-32.72,152.14,66,14.99
11,georgetown,40,GY,1573845316,70,6.8,-58.16,93.2,13.87
12,victoria,75,BN,1573845244,94,5.28,115.24,80.6,1.12
13,taolanaro,,,,,,,,
14,illoqqortoormiut,,,,,,,,
15,cartagena,9,ES,1573845735,50,37.63,-1,52,6.93
16,yenagoa,100,NG,1573845768,91,4.92,6.26,78.39,3.76
17,wilmington,1,US,1573845768,30,39.75,-75.55,53.6,6.93
18,saint-philippe,90,CA,1573845486,74,45.36,-73.48,39,20.8
19,puerto ayora,40,EC,1573845459,61,-0.74,-90.35,78.8,16.11
20,samusu,,,,,,,,
21,ardakan,27,IR,1573845769,16,32.31,54.02,44.6,4.7
22,vanimo,37,PG,1573845564,75,-2.67,141.3,83.77,9.73
23,huesca,92,ES,1573845769,86,42.14,-0.41,37.99,8.05
24,hue,40,VN,1573845769,94,16.47,107.58,73.4,2.24
25,khatanga,84,RU,1573845463,97,71.98,102.47,-13.25,7.94
26,ilulissat,75,GL,1573845533,86,69.22,-51.1,28.4,8.05
27,port macquarie,75,AU,1573845770,82,-31.43,152.91,64.4,10.29
28,castlegar,56,CA,1573845770,93,49.32,-117.66,37.99,2.51
29,carnarvon,0,ZA,1573845458,20,-30.97,22.13,75.29,15.41
30,nemuro,0,JP,1573845770,58,43.32,145.57,35.73,27.2
31,beloha,100,MG,1573845458,80,-25.17,45.06,74.26,7.07
32,morristown,1,US,1573845770,34,36.21,-83.29,57.2,4.7
33,pacific grove,40,US,1573845555,67,36.62,-121.92,66,5.82
34,vardo,1,US,1573845575,37,39.62,-77.74,54,8.84
35,port elizabeth,1,US,1573845488,32,39.31,-74.98,54,6.93
36,lavrentiya,44,RU,1573845771,74,65.58,-170.99,25.65,26.24
37,kaitangata,90,NZ,1573845468,89,-46.28,169.85,54,4
38,vila franca do campo,75,PT,1573845540,67,37.72,-25.43,62.6,4.7
39,albany,40,US,1573845463,39,42.65,-73.75,50,9.17
40,college,75,US,1573845528,64,64.86,-147.8,3.2,5.82
41,kununurra,87,AU,1573845533,83,-15.77,128.74,73.4,1.12
42,eskasem,,,,,,,,
43,coria,4,ES,1573845772,61,39.98,-6.54,44.01,3
44,yerbogachen,65,RU,1573845541,95,61.28,108.01,-23.28,1.7
45,bredasdorp,34,ZA,1573845458,72,-34.53,20.04,68,5.82
46,sioux lookout,1,CA,1573845772,51,50.1,-91.92,12.2,2.24
47,perivolion,75,GR,1573845772,77,39.42,20.01,64.4,8.05
48,punta arenas,40,CL,1573845460,54,-53.16,-70.91,55.4,25.28
49,atherton,40,AU,1573845643,88,-17.27,145.48,69.8,4.7
50,san felipe,0,CL,1573845773,30,-32.75,-70.73,91,3
51,atuona,6,PF,1573845469,72,-9.8,-139.03,80.2,13.71
52,bairiki,,,,,,,,
53,rikitea,100,PF,1573845463,79,-23.12,-134.97,73.35,19.73
54,darnah,0,LY,1573845566,56,32.77,22.64,68.99,5.32
55,jamestown,14,AU,1573845467,95,-33.21,138.6,45.97,4.74
56,tasiilaq,75,GL,1573845492,80,65.61,-37.64,35.6,6.93
57,vila velha,68,BR,1573845541,62,-3.71,-38.6,84.2,12.75
58,torbay,75,CA,1573845523,59,47.66,-52.73,37.99,12.75
59,talnakh,58,RU,1573845478,82,69.49,88.39,-16.6,4.47
60,butaritari,84,KI,1573845465,72,3.07,172.79,83.52,8.23
61,duz,,,,,,,,
62,gazanjyk,94,TM,1573845775,63,39.24,55.52,40.98,12.28
63,dingle,98,PH,1573845775,87,11,122.67,75.11,2.35
64,ponta do sol,100,BR,1573845524,92,-20.63,-46,68.95,3.18
65,clyde river,40,CA,1573845468,73,70.47,-68.59,19.4,13.87
66,lalibela,60,ET,1573845775,57,12.04,39.05,59.54,7.25
67,east london,40,ZA,1573845481,88,-33.02,27.91,68,5.82
68,shache,100,CN,1573845471,40,38.42,77.24,55,6.87
69,te anau,88,NZ,1573845541,93,-45.41,167.72,46.04,3.56
70,chapadinha,70,BR,1573845776,41,-3.74,-43.35,93.69,4.88
71,bengkulu,,,,,,,,
72,nikolskoye,100,RU,1573845464,90,59.7,30.79,37.4,2.24
73,luderitz,0,NA,1573845531,82,-26.65,15.16,64.4,17.22
74,banda aceh,100,ID,1573845747,90,5.56,95.32,74.07,2.98
75,wulanhaote,,,,,,,,
76,vaini,0,IN,1573845461,94,15.34,74.49,68.23,5.91
77,quatre cocos,75,MU,1573845777,69,-20.21,57.76,75.2,17.22
78,sitka,0,US,1573845477,31,37.17,-99.65,63,15.99
79,kodiak,1,US,1573845469,40,39.95,-94.76,57,4.7
80,bluff,9,AU,1573845475,90,-23.58,149.07,68.47,3.15
81,qaanaaq,100,GL,1573845461,73,77.48,-69.36,24.21,3.8
82,marcona,,,,,,,,
83,hithadhoo,94,MV,1573845481,75,-0.6,73.08,82.62,7.72
84,namibe,2,AO,1573845533,81,-15.19,12.15,71.87,16.84
85,leningradskiy,0,RU,1573845566,85,69.38,178.42,19.42,13.02
86,mys shmidta,,,,,,,,
87,saint george,12,GR,1573845471,82,39.45,22.34,59,4.7
88,bethel,40,US,1573845459,85,60.79,-161.76,12.2,16.11
89,busselton,38,AU,1573845461,36,-33.64,115.35,64.99,17.65
90,ternovka,0,RU,1573845778,77,51.69,41.59,36.21,12.77
91,eau claire,1,US,1573845778,34,44.81,-91.5,39,3.44
92,tuktoyaktuk,20,CA,1573845541,76,69.44,-133.03,-11.2,8.05
93,farkhor,75,TJ,1573845779,87,37.49,69.4,50,2.44
94,new norfolk,40,AU,1573845482,96,-42.78,147.06,48.2,13.87
95,norman wells,90,CA,1573845463,70,65.28,-126.83,-4,16.11
96,dikson,0,RU,1573845462,94,73.51,80.55,-2.2,11.25
97,muragachha,,,,,,,,
98,taburi,,,,,,,,
99,egvekinot,39,RU,1573845484,93,66.32,-179.17,9.97,12.21
100,arraial do cabo,75,BR,1573845520,83,-22.97,-42.02,75.2,23.04
101,padang,100,ID,1573845780,95,-0.92,100.36,67.91,3.02
102,tuatapere,91,NZ,1573845476,93,-46.13,167.69,51.01,5.01
103,severo-kurilsk,77,RU,1573845488,69,50.68,156.12,23.14,11.21
104,lagoa formosa,79,BR,1573845780,100,-18.77,-46.41,71.01,9.66
105,petropavlovsk-kamchatskiy,47,RU,1573845467,92,53.05,158.65,14,2.24
106,sao filipe,75,CV,1573845473,78,14.9,-24.5,72.3,14.43
107,crab hill,,,,,,,,
108,coquimbo,20,CL,1573845479,68,-29.95,-71.34,66.2,13.87
109,porto novo,75,BR,1573845781,72,-23.68,-45.44,68,4.7
110,palabuhanratu,,,,,,,,
111,ekhabi,73,RU,1573845781,86,53.51,142.97,0.81,3.13
112,lasa,20,CY,1573845537,77,34.92,32.53,69.8,5.82
113,barentsburg,,,,,,,,
114,constitucion,40,MX,1573845487,51,23.99,-104.67,59,3.36
115,port alfred,18,ZA,1573845463,92,-33.59,26.89,64.99,1.99
116,grand river south east,,,,,,,,
117,verkhoyansk,78,RU,1573845782,94,67.55,133.39,-23.01,0.49
118,tsihombe,,,,,,,,
119,cottonwood,1,US,1573845655,21,34.74,-112.01,71.01,6.93
120,kudahuvadhoo,100,MV,1573845540,73,2.67,72.89,82.71,3.83
121,telfs,90,AT,1573845782,93,47.3,11.07,39.99,9.17
122,pocone,85,BR,1573845783,50,-16.26,-56.62,91.99,5.06
123,port lincoln,46,AU,1573845535,72,-34.72,135.86,54.34,8.93
124,vagur,51,FO,1573845783,62,61.47,-6.81,40.12,12.06
125,lebu,75,ET,1573845458,63,8.96,38.73,60.8,6.93
126,aksarka,100,RU,1573845783,94,66.56,67.8,5.4,15.73
127,san quintin,25,PH,1573845542,85,17.54,120.52,71.87,5.3
128,hokitika,100,NZ,1573845783,90,-42.72,170.96,56.93,23.53
129,alice springs,0,AU,1573845784,14,-23.7,133.88,59,4.7
130,puerto del rosario,40,ES,1573845784,68,28.5,-13.86,66.2,19.46
131,cape town,20,ZA,1573845361,77,-33.93,18.42,66.2,21.92
132,aloleng,51,PH,1573845784,85,16.13,119.78,73.47,2.37
133,sivas,40,TR,1573845784,69,39.75,37.01,39.2,8.05
134,esna,90,RO,1573845784,93,45.2,27.57,51.8,3.36
135,port hedland,20,AU,1573845462,50,-20.31,118.58,77,8.05
136,sahbuz,0,AZ,1573845784,68,39.41,45.57,41,9.17
137,rawah,,,,,,,,
138,tarakan,28,ID,1573845785,82,3.3,117.63,80.6,8.61
139,ribeira grande,75,PT,1573845466,63,38.52,-28.7,64.4,5.82
140,diego de almagro,0,CL,1573845785,22,-26.39,-70.05,82.9,16.82
141,saint-jean-port-joli,,,,,,,,
142,tommot,100,RU,1573845466,94,58.97,126.27,-11.15,10.92
143,forestville,90,CA,1573845785,69,48.74,-69.09,33.8,18.34
144,zhangye,61,CN,1573845785,20,38.94,100.46,41.02,9.82
145,hualmay,91,PE,1573845471,58,-11.1,-77.61,72.66,10.04
146,upernavik,100,GL,1573845471,86,72.79,-56.15,23,15.9
147,port-gentil,40,GA,1573845786,94,-0.72,8.78,77,3.36
148,bambous virieux,75,MU,1573845481,69,-20.34,57.76,75.2,17.22
149,chuy,73,UY,1573845459,58,-33.69,-53.46,73.08,6.11
150,nouadhibou,80,MR,1573845565,64,20.93,-17.03,71.6,12.75
151,ondo,98,NG,1573845786,92,7.1,4.83,76.64,2.51
152,kuryk,7,KZ,1573845786,65,43.18,51.68,45.25,18.61
153,port-cartier,90,CA,1573845628,92,50.03,-66.88,30.99,8.05
154,samarai,86,PG,1573845787,92,-10.62,150.67,75.27,4.61
155,letlhakane,21,BW,1573845787,12,-21.42,25.59,84.2,4.32
156,mubi,100,NG,1573845787,23,10.27,13.26,79.7,3.2
157,balkhash,0,KZ,1573845787,34,46.84,74.98,18.39,16.02
158,lorengau,89,PG,1573845462,75,-2.02,147.27,82.78,7.92
159,mercedes,0,UY,1573845788,39,-33.25,-58.03,82.99,1.99
160,lata,100,IN,1573845464,62,30.78,78.62,24.78,5.53
161,sisimiut,100,GL,1573845574,88,66.94,-53.67,24.3,25.01
162,chokurdakh,95,RU,1573845517,97,70.62,147.9,-1.23,5.19
163,bassano,72,CA,1573845788,85,50.79,-112.47,46,6.42
164,homer,90,US,1573845788,100,59.64,-151.54,41,3.36
165,grand centre,,,,,,,,
166,hearst,61,CA,1573845553,74,49.69,-83.67,6.89,11.56
167,batagay,99,RU,1573845565,99,67.65,134.64,-22.4,0.2
168,perth,0,AU,1573845609,46,-31.95,115.86,73.4,9.17
169,makung,,,,,,,,
170,nakodar,100,IN,1573845789,49,31.13,75.48,71.74,2.24
171,portland,20,US,1573845789,36,43.66,-70.25,48.99,10.29
172,artyk,,,,,,,,
173,hermanus,2,ZA,1573845464,84,-34.42,19.24,66,3
174,surt,42,LY,1573845569,24,31.21,16.59,68.61,10.98
175,verkhniy baskunchak,0,KZ,1573845528,54,48.23,46.72,38.48,13.62
176,belushya guba,,,,,,,,
177,temaraia,,,,,,,,
178,pangnirtung,75,CA,1573845492,73,66.15,-65.72,21.2,8.05
179,nizhneyansk,,,,,,,,
180,borbon,75,PH,1573845790,88,10.84,124.03,78.8,2.24
181,atar,56,MR,1573845516,17,20.52,-13.05,86,6.93
182,attawapiskat,,,,,,,,
183,fort nelson,75,CA,1573845791,84,58.81,-122.69,3.2,2.24
184,omsukchan,100,RU,1573845791,100,62.53,155.8,-5.08,5.44
185,chicama,75,PE,1573845485,77,-7.84,-79.15,66.2,11.41
186,dalvik,75,SE,1573845791,86,57.79,14.13,42.01,12.75
187,acarau,,,,,,,,
188,djambala,99,CG,1573845791,91,-2.55,14.76,72.01,3.33
189,eldikan,,,,,,,,
190,hilo,1,US,1573845481,54,19.71,-155.08,82.99,3.36
191,marysville,90,US,1573845496,87,48.05,-122.18,55.4,16.11
192,yara,63,CU,1573845792,58,20.27,-76.95,88.43,1.19
193,yellowknife,90,CA,1573845470,78,62.45,-114.38,12.2,12.75
194,biltine,99,TD,1573845487,12,14.53,20.93,85.1,8.61
195,barrow,58,AR,1573845466,23,-38.31,-60.23,89.06,10.6
196,magadan,100,RU,1573845792,64,59.56,150.8,27.63,33.87
197,muroto,0,JP,1573845793,49,33.37,134.14,45.23,5.19
198,hobart,40,AU,1573845286,68,-42.88,147.33,48.2,13.87
199,zamora,44,ES,1573845793,74,41.51,-5.74,37.4,11.41
200,moose factory,75,CA,1573845535,66,51.26,-80.61,12.2,21.92
201,husavik,34,CA,1573845793,58,50.56,-96.99,21.99,5.99
202,nizwa,0,OM,1573845793,36,22.93,57.53,64.94,1.81
203,srednekolymsk,100,RU,1573845468,96,67.46,153.71,3.97,4.47
204,tamworth,5,AU,1573845793,38,-31.09,150.93,51.8,4.7
205,pithoragarh,61,IN,1573845794,90,29.59,80.22,53.47,2.01
206,bam,0,IR,1573845794,13,29.11,58.36,45.97,1.72
207,daru,99,PG,1573845562,89,-9.07,143.21,76.5,3.42
208,aquiraz,55,BR,1573845542,62,-3.9,-38.39,84.2,12.75
209,santiago de chuco,88,PE,1573845794,68,-8.15,-78.17,53.74,6.53
210,mecca,39,SA,1573845517,50,21.43,39.83,75.88,3.15
211,zheleznodorozhnyy,99,RU,1573845794,92,55.75,38,35.6,6.71
212,avarua,0,CK,1573845311,78,-21.21,-159.78,80.6,10.29
213,silago,100,PH,1573845795,99,10.53,125.16,72.66,3.53
214,okato,70,NZ,1573845795,93,-39.19,173.88,61,5.99
215,kalmunai,98,LK,1573845795,75,7.42,81.82,83.55,9.51
216,mayo,90,CA,1573845524,70,63.59,-135.9,1.4,10.29
217,thompson,40,CA,1573845465,65,55.74,-97.86,3.2,6.93
218,anadyr,40,RU,1573845475,78,64.73,177.51,17.6,11.18
219,saint-joseph,100,FR,1573845795,87,43.56,6.97,48.99,4.7
220,sentyabrskiy,,,,,,,,
221,ahipara,4,NZ,1573845529,100,-35.17,173.16,60.01,12.06
222,coahuayana,59,MX,1573845516,61,18.62,-100.35,85.23,1.68
223,rawson,40,AR,1573845575,56,-43.3,-65.11,73.4,28.86
224,maridi,,,,,,,,
225,cilegon,40,ID,1573845796,78,-6.02,106.05,77,4.7
226,komsomolskiy,100,RU,1573845464,95,67.55,63.78,4.33,20.8
227,comodoro rivadavia,40,AR,1573845796,15,-45.87,-67.48,73.4,34.45
228,yusva,,,,,,,,
229,kamina,99,CD,1573845797,92,-8.74,25,69.26,3.65
230,viedma,100,AR,1573845797,24,-40.81,-62.99,85.73,20.58
231,saldanha,30,PT,1573845470,79,41.42,-6.55,39.72,9.82
232,griffith,1,AU,1573845797,66,-34.29,146.06,55.4,8.05
233,los llanos de aridane,75,ES,1573845515,64,28.66,-17.92,68,21.92
234,nome,1,US,1573845534,42,30.04,-94.42,62.6,9.17
235,saint-augustin,90,CA,1573845797,69,45.63,-73.98,37.99,17.22
236,carballo,75,ES,1573845798,87,43.21,-8.69,52,6.93
237,touros,20,BR,1573845573,58,-5.2,-35.46,84.2,17.22
238,faanui,7,PF,1573845530,81,-16.48,-151.75,79.72,18.5
239,adrar,97,DZ,1573845476,18,27.87,-0.29,78.8,11.41
240,yulara,0,AU,1573845547,9,-25.24,130.99,69.8,10.29
241,richards bay,85,ZA,1573845798,81,-28.77,32.06,70.86,24.18
242,conceicao do araguaia,50,BR,1573845533,44,-8.26,-49.26,89.6,3
243,kathu,0,ZA,1573845798,19,-27.7,23.05,77,10.18
244,merauke,97,ID,1573845488,92,-8.49,140.4,75.63,5.91
245,taoudenni,33,ML,1573845799,17,22.68,-3.98,77.18,6.06
246,matagami,90,NG,1573845799,52,9.67,8.4,76.14,2.24
247,san jose,75,HN,1573845584,61,14.25,-87.96,82.4,16.11
248,little current,75,CA,1573845783,68,45.98,-81.93,30.99,12.75
249,mar del plata,61,AR,1573845459,21,-46.43,-67.52,71.11,43.89
250,marisel,20,RO,1573845799,100,46.65,23.13,50,2.24
251,kutulik,100,RU,1573845799,90,53.35,102.79,6.01,7.78
252,kazalinsk,,,,,,,,
253,lincoln,75,GB,1573845800,87,53.23,-0.54,46.99,19.46
254,presidencia roque saenz pena,0,AR,1573845800,24,-26.79,-60.44,96.13,6.08
255,agalatovo,100,RU,1573845800,91,60.22,30.29,37.4,2.24
256,port blair,65,IN,1573845483,75,11.67,92.75,82.74,5.26
257,baykit,93,RU,1573845800,98,61.68,96.39,-20.6,0.54
258,salinas,1,US,1573845801,59,36.67,-121.66,66,6.93
259,siderno,75,IT,1573845801,63,38.28,16.3,68,3.36
260,mahebourg,75,MU,1573845520,69,-20.41,57.7,75.2,17.22
261,rocky mountain house,88,CA,1573845801,83,52.38,-114.92,37.06,2.59
262,hasaki,3,JP,1573845525,81,35.73,140.83,44.6,5.82
263,cabo san lucas,5,MX,1573845257,45,22.89,-109.91,84.2,12.75
264,cidreira,64,BR,1573845485,70,-30.17,-50.22,69.26,16.58
265,tiksi,4,RU,1573845472,97,71.64,128.87,-12.03,1.63
266,sinkat,,,,,,,,
267,kailua,40,US,1573845802,74,21.39,-157.74,81,3.36
268,carutapera,44,BR,1573845802,78,-1.2,-46.02,81.25,17.47
269,mount pleasant,1,US,1573845802,55,33.16,-94.97,60.01,4.7
270,luau,100,CD,1573845802,90,-10.7,22.23,69.96,1.74
271,cayenne,21,GF,1573845802,66,4.94,-52.33,87.8,13.87
272,katangli,100,RU,1573845802,91,51.71,143.23,6.94,2.48
273,mwinilunga,100,ZM,1573845802,94,-11.73,24.43,65.61,3.83
274,tumen,0,CN,1573845803,48,42.97,129.84,17.2,6.11
275,margate,75,AU,1573845523,49,-43.03,147.26,48.2,13.87
276,lagoa,0,PT,1573845464,58,37.14,-8.45,54,10.29
277,segezha,16,RU,1573845803,91,63.74,34.31,30.13,7.16
278,fushan,31,CN,1573845803,72,32.67,118.71,64.99,3.83
279,poum,20,MK,1573845534,87,41.28,20.71,44.6,3.36
280,road town,20,VG,1573845534,66,18.42,-64.62,86,8.05
281,lobva,91,RU,1573845804,88,59.19,60.52,28.9,9.31
282,angren,83,UZ,1573845804,62,41.01,70.08,38.39,1.1
283,evanston,90,US,1573845522,64,42.04,-87.69,37.99,5.82
284,anzio,75,IT,1573845804,93,41.45,12.63,63,5.82
285,oktyabrskiy,99,RU,1573845465,92,55.61,37.97,35.6,6.71
286,santiago de cao,75,PE,1573845804,77,-7.96,-79.24,66.2,11.41
287,viligili,,,,,,,,
288,inuvik,90,CA,1573845570,76,68.36,-133.71,-7.6,2.24
289,ust-kamchatsk,,,,,,,,
290,pevek,64,RU,1573845484,58,69.7,170.27,8.92,4
291,eten,25,PE,1573845805,29,-6.91,-79.86,66.2,16.11
292,phan thiet,95,VN,1573845525,92,10.93,108.1,70.61,1.74
293,ypsonas,20,CY,1573845805,73,34.69,32.96,69.8,14.99
294,himora,,,,,,,,
295,el faiyum,,,,,,,,
296,traverse city,75,US,1573845805,55,44.76,-85.62,37.99,11.41
297,kautokeino,61,NO,1573845517,79,69.01,23.04,19.71,3.49
298,charlestown,1,US,1573845526,50,41.38,-71.64,54,14.99
299,tsiroanomandidy,99,MG,1573845806,74,-18.77,46.05,75.29,4.72
300,amderma,,,,,,,,
301,sur,0,OM,1573845806,40,22.57,59.53,74.1,8.28
302,najran,0,SA,1573845806,37,17.54,44.22,68,3.27
303,ratnagiri,7,IN,1573845807,82,16.98,73.3,73.98,2.51
304,airai,28,TL,1573845545,44,-8.93,125.41,68.04,4.41
305,kahului,1,US,1573845361,61,20.89,-156.47,82.4,4.7
306,umarizal,54,BR,1573845807,18,-5.99,-37.82,100.63,6.04
307,sakakah,,,,,,,,
308,katsuura,20,JP,1573845473,75,33.93,134.5,44.6,11.41
309,kindu,86,CD,1573845807,70,-2.95,25.92,77.07,2.01
310,pimentel,72,BR,1573845807,43,-3.7,-45.5,93.42,5.28
311,weihai,0,CN,1573845808,76,37.5,122.11,48.07,6.38
312,bilibino,97,RU,1573845808,63,68.06,166.44,-0.71,2.39
313,ocampo,45,MX,1573845808,67,27.32,-102.4,50.68,6.69
314,burnie,0,AU,1573845808,79,-41.05,145.91,46,5.99
315,king city,90,CA,1573845808,74,43.93,-79.54,37.99,10.29
316,dalmatovo,98,RU,1573845808,95,56.26,62.94,25.41,10.58
317,broken hill,45,AU,1573845808,66,-31.97,141.45,55.4,13.87
318,lovington,5,US,1573845809,35,32.94,-103.35,59,12.75
319,santa barbara,1,US,1573845809,52,34.42,-119.7,70,3.89
320,provideniya,96,RU,1573845484,91,64.42,-173.23,18.39,16.51
321,itoman,20,JP,1573845809,77,26.12,127.67,69.8,10.29
322,san cristobal,90,HN,1573845809,65,14.68,-86.92,77.47,5.66
323,bandarbeyla,0,SO,1573845809,74,9.49,50.81,79.93,18.99
324,bushehr,48,IR,1573845810,53,28.97,50.84,71.6,5.95
325,marataizes,100,BR,1573845810,78,-21.04,-40.82,80.2,5.84
326,geraldton,5,CA,1573845525,50,49.72,-86.95,5,9.17
327,port hardy,75,CA,1573845470,93,50.7,-127.42,48.2,2.24
328,conceicao da barra,50,BR,1573845810,80,-18.59,-39.73,79.3,20.49
329,champerico,75,MX,1573845469,69,16.38,-93.6,77,13.87
330,baruun-urt,60,MN,1573845810,69,46.68,113.28,10.92,5.61
331,vaitape,7,PF,1573845523,81,-16.52,-151.75,79.72,18.5
332,riyadh,75,SA,1573845240,67,24.63,46.72,62.6,8.5
333,along,0,IN,1573845811,89,28.17,94.8,61.68,3.06
334,anloga,20,GH,1573845811,79,5.79,0.9,84.2,9.17
335,sosnovo-ozerskoye,0,RU,1573845811,83,52.53,111.54,0.25,4.23
336,guerrero negro,73,MX,1573845479,49,27.97,-114.04,76.08,5.35
337,havoysund,75,NO,1573845811,90,71,24.66,37.4,10.29
338,mount isa,0,AU,1573845812,15,-20.73,139.49,73.4,11.41
339,libertad,0,AR,1573845812,33,-34.7,-58.68,91,6.93
340,saurimo,99,AO,1573845812,85,-9.66,20.4,70.45,2.28
341,marawi,17,PH,1573845812,79,8,124.29,75,8.01
342,hami,58,CN,1573845812,47,42.84,93.51,31.62,1.45
343,paamiut,85,GL,1573845535,76,61.99,-49.67,29.14,3.29
344,the valley,40,AI,1573845812,62,18.22,-63.06,86,9.17
345,sidi ali,65,DZ,1573845812,55,36.1,0.42,53.92,8.99
346,warqla,,,,,,,,
347,aripuana,100,BR,1573845813,75,-9.17,-60.63,80.08,1.68
348,rudbar,,,,,,,,
349,kawalu,90,ID,1573845813,90,-7.38,108.21,67.35,2.77
350,wamba,88,CD,1573845813,80,2.14,27.99,73.54,5.44
351,kouango,100,CF,1573845813,82,4.99,19.98,77.58,3.58
352,auki,9,NG,1573845814,25,12.18,6.51,84.4,6.44
353,hutang,0,CN,1573845814,35,29.22,119.85,53.01,3.36
354,mehtar lam,75,AF,1573845814,72,34.67,70.21,59,6.76
355,killybegs,40,IE,1573845814,75,54.63,-8.45,42.8,5.82
356,vung tau,25,VN,1573845814,81,10.35,107.08,76.57,5.79
357,eyl,0,SO,1573845814,78,7.98,49.82,80.08,22.68
358,wanning,75,AT,1573845548,71,48.64,13.53,51.8,10.29
359,salym,84,RU,1573845814,89,60.06,71.48,4.42,8.97
360,shitanjing,57,CN,1573845815,30,39.23,106.34,37.42,3.18
361,longyearbyen,75,NO,1573845470,63,78.22,15.63,30.2,17.22
362,altamira,62,BR,1573845544,44,-3.2,-52.21,93.76,2.95
363,whitehorse,75,CA,1573845309,86,60.72,-135.06,33.8,17.22
364,bethanien,0,NA,1573845815,27,-26.5,17.16,78.55,13.02
365,samalaeulu,,,,,,,,
366,kurilsk,92,RU,1573845815,80,45.23,147.88,30.31,25.39
367,porto walter,87,BR,1573845816,89,-8.27,-72.74,83.19,1.07
368,sulangan,100,PH,1573845534,77,11.14,123.72,82.56,15.35
369,gavrilovka vtoraya,0,RU,1573845816,82,52.88,42.77,33.46,10.76
370,santa cruz,22,BR,1573845538,31,-6.22,-36.02,93.7,13.09
371,aklavik,40,CA,1573845529,83,68.22,-135.01,-7.6,2.24
372,calvinia,0,ZA,1573845816,25,-31.47,19.78,75.02,13.33
373,kavaratti,58,IN,1573845458,70,10.57,72.64,82.47,6.53
374,tual,100,ID,1573845816,77,-5.67,132.75,80.11,8.25
375,dakoro,53,NE,1573845817,16,14.51,6.76,85.26,4.47
376,chapais,90,CA,1573845560,72,49.78,-74.86,12.2,17.22
377,khandyga,0,RU,1573845817,97,62.65,135.58,-12.41,3.27
378,nogliki,100,RU,1573845817,85,51.8,143.14,5.5,2.51
379,beringovskiy,100,RU,1573845532,77,63.05,179.32,28.47,29.44
380,oussouye,69,SN,1573845484,74,12.49,-16.54,87.8,6.93
381,morki,63,RU,1573845817,76,56.43,49,32,7.92
382,saleaula,,,,,,,,
383,narsaq,20,GL,1573845818,58,60.91,-46.05,28.4,1.12
384,lodwar,36,KE,1573845818,37,3.12,35.6,88.75,17.18
385,itarema,98,BR,1573845488,51,-2.92,-39.92,88.79,14.38
386,harper,1,US,1573845818,37,30.3,-99.24,60.01,2.8
387,hostotipaquillo,100,MX,1573845818,59,21.06,-104.05,78.01,8.01
388,adre,84,TD,1573845818,15,13.47,22.2,80.31,8.9
389,narasannapeta,6,IN,1573845525,79,18.42,84.04,70.36,3.31
390,udachnyy,90,RU,1573845573,83,66.42,112.4,-14.8,4.47
391,kapit,100,MY,1573845819,97,2.02,112.94,73.6,1.21
392,flinders,90,AU,1573845547,100,-34.58,150.85,63,3.36
393,jiujiang,0,CN,1573845819,47,29.73,115.99,60.19,3.09
394,honiara,40,SB,1573845572,94,-9.43,159.96,75.2,3.36
395,sebinkarahisar,0,TR,1573845819,75,40.29,38.42,39.74,2.06
396,tumannyy,,,,,,,,
397,dongsheng,0,CN,1573845820,54,29.72,112.52,62.31,5.44
398,labutta,,,,,,,,
399,biryusinsk,100,RU,1573845820,84,55.96,97.82,-2.51,7.23
400,hervey bay,90,AU,1573845820,78,-25.3,152.85,73.4,8.05
401,sorong,8,ID,1573845820,98,-0.86,131.25,71.62,1.63
402,panama city,90,US,1573845820,76,30.16,-85.65,55,10.29
403,caravelas,75,BR,1573845522,57,-17.73,-39.27,87.13,15.95
404,varnamo,90,SE,1573845821,93,57.19,14.04,43,11.41
405,teya,75,MX,1573845558,74,21.05,-89.07,81,13.87
406,brae,1,GB,1573845539,92,60.4,-1.35,42.8,1.12
407,huangmei,8,CN,1573845821,45,30.1,115.95,61.27,4.63
408,kabanjahe,40,ID,1573845821,100,3.1,98.49,78.8,4.7
409,codrington,0,AU,1573845465,87,-28.95,153.24,73,6.93
410,samarkand,100,UZ,1573845821,52,39.65,66.98,46.4,11.41
411,bababe,,,,,,,,
412,salinopolis,62,BR,1573845822,80,-0.61,-47.36,81.03,19.6
413,itatskiy,28,RU,1573845822,93,56.07,89.04,-11,7.09
414,ilinskiy,99,RU,1573845822,92,55.62,38.12,35.6,6.71
415,las cruces,0,CL,1573845822,27,-33.5,-71.62,89.6,18.34
416,mehriz,28,IR,1573845822,16,31.58,54.44,44.6,4.7
417,mstera,98,RU,1573845822,86,56.38,41.92,32.43,5.93
418,mtwara,40,TZ,1573845823,83,-10.28,40.18,80.6,5.82
419,saint anthony,1,US,1573845823,49,43.97,-111.68,53.6,4.7
420,encruzilhada do sul,0,BR,1573845823,67,-30.54,-52.52,70.09,8.77
421,haibowan,,,,,,,,
422,raudeberg,75,NO,1573845572,80,61.99,5.14,39.2,8.05
423,ouro preto do oeste,100,BR,1573845823,86,-10.75,-62.22,80.94,4.23
424,prince rupert,20,CA,1573845823,87,54.32,-130.32,50,9.17
425,slave lake,90,CA,1573845824,100,55.28,-114.77,30.2,6.93
426,faro,6,PT,1573845824,58,37.02,-7.94,54,10.29
427,muromtsevo,0,RU,1573845824,92,56.37,75.24,0.28,5.93
428,panaba,75,MX,1573845824,82,21.28,-88.27,81,5.99
429,umm lajj,66,SA,1573845557,61,25.02,37.27,79.05,4.97
430,cockburn town,75,TC,1573845242,66,21.46,-71.14,84.2,8.05
431,oranjemund,10,ZA,1573845824,90,-28.55,16.43,62.74,14.34
432,deputatskiy,82,RU,1573845824,100,69.3,139.9,-11.78,0.36
433,monterey,40,US,1573845825,67,36.6,-121.89,64.99,5.82
434,oistins,40,BB,1573845825,66,13.07,-59.53,86,13.87
435,birnin kebbi,3,NG,1573845825,20,12.45,4.2,87.57,5.21
436,inongo,96,CD,1573845825,83,-1.93,18.29,76.26,2.24
437,rudsar,90,IR,1573845825,93,37.14,50.29,51.8,4.7
438,grindavik,40,IS,1573845478,61,63.84,-22.43,37.4,10.29
439,vannes,75,FR,1573845825,87,47.66,-2.76,46.99,8.05
440,gat,75,SN,1573845461,54,14.69,-16.54,96.8,9.17
441,tura,95,RU,1573845826,100,64.27,100.22,-26.05,1.43
442,waingapu,100,ID,1573845826,75,-9.65,120.26,81.84,4.99
443,zhuanghe,0,CN,1573845826,48,39.7,122.97,43.79,12.5
444,koshurnikovo,100,RU,1573845826,93,54.3,93.39,-9.54,2.82
445,eagle pass,5,MX,1573845826,48,28.71,-100.5,62.6,2.75
446,nanortalik,100,GL,1573845527,82,60.14,-45.24,31.24,19.55
447,cherskiy,97,RU,1573845469,83,68.75,161.3,9.05,2.44
448,belaya gora,85,RU,1573845827,98,68.54,146.19,-6.38,4.38
449,meulaboh,100,ID,1573845475,82,4.14,96.13,79.48,7.38
450,calama,87,CL,1573845708,12,-22.46,-68.93,77,26.4
451,inhambane,20,MZ,1573845827,73,-23.87,35.38,75.2,3.36
452,kaeo,2,NZ,1573845493,100,-35.1,173.78,59,10.92
453,wageningen,90,NL,1573845827,93,51.98,5.66,43,4.7
454,les cayes,3,HT,1573845827,71,18.19,-73.75,82.49,4.79
455,valparaiso,90,US,1573845442,69,41.47,-87.06,39.99,6.58
456,sambava,100,MG,1573845471,93,-14.27,50.17,74.28,0.13
457,gay,4,RU,1573845828,79,51.47,58.44,26.6,17.9
458,isangel,20,VU,1573845520,84,-19.55,169.27,73.4,14.65
459,tierranueva,100,MX,1573845828,82,21.68,-100.57,50.36,7.23
460,ostrovnoy,74,RU,1573845561,87,68.05,39.51,25.21,25.39
461,port augusta,90,AU,1573845828,72,-32.49,137.76,59,12.75
462,hamilton,90,CA,1573845828,74,43.26,-79.87,37,11.41
463,ginir,37,ET,1573845558,93,7.14,40.71,56.8,4.99
464,bathsheba,40,BB,1573845829,66,13.22,-59.52,86,13.87
465,dubbo,50,AU,1573845777,46,-32.25,148.6,53.6,4.27
466,nishihara,1,JP,1573845829,87,35.74,139.53,55,3.36
467,huarmey,85,PE,1573845829,49,-10.07,-78.15,77.68,12.41
468,mehamn,75,NO,1573845479,83,71.03,27.85,37.4,12.75
469,maracaibo,75,CO,1573845715,69,3.41,-75.78,80.6,14.99
470,ulaanbaatar,40,MN,1573845777,77,47.92,106.92,3.2,5.39
471,shelburne,90,CA,1573845309,74,44.08,-80.2,37,8.05
472,tome,100,JP,1573845830,86,38.69,141.2,45.64,5.7
473,papara,55,BR,1573845830,62,-3.98,-38.73,84.2,12.75
474,westport,1,US,1573845734,43,41.14,-73.36,53.01,13.87
475,moyo,,,,,,,,
476,matamoros,1,US,1573845830,51,25.87,-97.51,63,12.75
477,dolbeau,,,,,,,,
478,nenjiang,0,CN,1573845830,61,49.17,125.23,3.49,9.51
479,sorgun,82,TR,1573845831,49,39.81,35.19,51.91,4.88
480,mazatlan,5,MX,1573845697,38,23.22,-106.42,89.6,9.17
481,khorixas,38,NA,1573845831,30,-20.37,14.96,71.89,12.95
482,urdoma,98,RU,1573845831,93,61.74,48.55,36.27,9.42
483,montpellier,100,FR,1573845831,81,43.61,3.88,46.4,5.82
484,bubaque,100,GW,1573845831,74,11.28,-15.83,82.78,13.06
485,poronaysk,64,RU,1573845489,82,49.22,143.1,12.09,14.79
486,vaitupu,,,,,,,,
487,la ronge,90,CA,1573845832,72,55.1,-105.3,17.6,12.75
488,placido de castro,100,BR,1573845832,99,-10.34,-67.19,72.84,4.05
489,viesca,75,MX,1573845832,67,25.34,-102.81,60.01,5.03
490,farmington,1,US,1573845832,19,36.73,-108.21,57.99,4.7
491,nantucket,40,US,1573845513,40,41.28,-70.1,53.6,13.87
492,vostok,20,RU,1573845522,63,46.45,135.83,2.89,21.52
493,kloulklubed,90,PW,1573845833,88,7.04,134.26,77,5.82
494,salalah,40,OM,1573845530,61,17.01,54.1,80.6,5.82
495,inverell,16,AU,1573845833,52,-29.78,151.11,61,3.31
496,axim,78,GH,1573845485,85,4.87,-2.24,78.87,4.47
497,amberley,72,NZ,1573845833,63,-43.15,172.73,63,4.7
498,gobabis,73,NA,1573845833,9,-22.45,18.97,85.14,8.95
499,sim,70,BR,1573845834,39,-12.25,-38.93,91.47,11.83
500,kavieng,68,PG,1573845462,77,-2.57,150.8,83.25,10.31
501,urumqi,,,,,,,,
502,qandala,5,SO,1573845834,75,11.47,49.87,76.87,7.23
503,coihaique,75,CL,1573845517,50,-45.58,-72.07,57.2,14.99
504,sapouy,97,BF,1573845834,19,11.55,-1.77,85.15,4.29
505,solnechnyy,89,RU,1573845540,85,50.72,136.64,-3.23,1.83
506,okhotsk,100,RU,1573845835,75,59.36,143.24,25.99,11.39
507,porbandar,0,IN,1573845835,78,21.64,69.61,78.31,13.76
508,gonzales,1,US,1573845835,59,36.51,-121.44,66,6.93
509,qasigiannguit,75,GL,1573845835,86,68.82,-51.19,28.4,8.05
510,tiznit,12,MA,1573845518,74,29.7,-9.73,50.49,24.72
511,qibili,,,,,,,,
512,odda,100,NO,1573845836,69,60.07,6.55,39.99,1.99
513,san patricio,0,PY,1573845487,37,-26.98,-56.83,84.81,10.36
514,ushtobe,89,KZ,1573845836,65,45.25,77.98,21.45,13.71
515,sochi,0,RU,1573845836,50,43.6,39.73,60.01,7.34
516,kadykchan,,,,,,,,
517,ferzikovo,100,RU,1573845836,92,54.52,36.76,30.2,4.47
518,ouango,94,CD,1573845836,78,4.31,22.55,76.53,2.68
519,noumea,44,NC,1573845400,68,-22.28,166.46,75,2.24
520,kyela,66,MW,1573845837,44,-9.6,33.87,84.52,2.37
521,rio grande,75,BR,1573845551,54,-32.03,-52.1,78.8,11.41
522,zyryanka,100,RU,1573845837,97,65.73,150.89,-3.87,10
523,odweyne,,,,,,,,
524,tshikapa,100,CD,1573845837,92,-6.42,20.79,73.98,2.13
525,nisia floresta,20,BR,1573845837,58,-6.09,-35.21,86,17.22
526,chernyshevskiy,100,RU,1573845838,93,63.01,112.47,-16.29,2.68
527,puerto baquerizo moreno,75,EC,1573845838,78,-0.9,-89.6,75.2,11.41
528,tautira,20,PF,1573845478,70,-17.73,-149.15,84.2,5.82
529,boffa,82,GN,1573845838,80,10.18,-14.04,82.36,9.01
530,cairns,40,AU,1573845540,88,-16.92,145.77,69.8,4.7
531,vestmannaeyjar,40,IS,1573845470,65,63.44,-20.27,41,13.87
532,mapiripan,100,CO,1573845838,64,2.89,-72.13,87.33,6.02
533,shumskiy,100,RU,1573845839,74,54.83,99.13,-2.18,8.16
534,tarancon,75,ES,1573845839,65,40.01,-3.01,45,8.05
535,at-bashi,15,KG,1573845839,83,41.17,75.81,12.07,5.39
536,rio gallegos,75,AR,1573845839,76,-51.62,-69.22,53.6,14.99
537,santa maria,40,BR,1573845603,45,-16.02,-48.01,86,9.17
538,umzimvubu,,,,,,,,
539,sakyla,75,FI,1573845839,93,61.03,22.33,36,4.7
540,pochutla,40,MX,1573845463,70,15.74,-96.47,88,10.29
541,bonfim,97,GY,1573845840,35,3.36,-59.84,96.53,7.67
542,sorkjosen,,,,,,,,
543,acapulco,20,MX,1573845576,70,16.86,-99.88,86,4.7
544,tortoli,20,IT,1573845840,58,39.93,9.66,57.2,17.22
545,finnsnes,75,NO,1573845840,92,69.23,17.98,35.6,14.99
546,saravan,0,AM,1573845840,68,39.72,45.65,41,9.17
547,ancud,40,CL,1573845480,55,-41.87,-73.83,60.8,10.29
548,luoyang,0,CN,1573845841,37,34.66,112.42,50.34,3.36
549,yeppoon,0,AU,1573845841,88,-23.13,150.74,69.8,2.24
550,kalvarija,100,LT,1573845841,86,54.41,23.23,42.31,8.66
551,dicabisagan,100,PH,1573845841,88,17.08,122.42,76.98,16.49
552,windsor,90,US,1573845644,74,42.3,-83.03,36,5.82
553,esperance,60,AU,1573845476,87,-33.86,121.89,53.6,9.17
554,morwell,76,AU,1573845841,89,-38.24,146.4,48,3
555,ouesso,98,CG,1573845842,79,1.61,16.05,76.68,0.27
556,le moule,10,GP,1573845842,66,16.33,-61.35,84.2,13.87
557,plettenberg bay,40,ZA,1573845492,95,-34.05,23.37,62.62,1.97
558,denpasar,20,ID,1573845257,83,-8.65,115.22,80.6,6.93
559,toora-khem,35,RU,1573845842,91,52.47,96.11,-6.97,7.09
560,klaksvik,57,FO,1573845460,74,62.23,-6.59,37.4,9.17
561,souillac,68,FR,1573845490,87,45.6,-0.6,45,4.7
562,vao,100,EE,1573845843,90,59.1,26.19,36.27,8.39
563,ketchikan,90,US,1573845576,93,55.34,-131.65,50,16.11
564,gogrial,,,,,,,,
565,san fernando,40,TT,1573845843,70,10.28,-61.46,84.2,3.36
566,alaverdi,90,AM,1573845843,81,41.1,44.65,46.4,3.36
567,evensk,71,RU,1573845843,73,61.92,159.24,16.81,12.55
568,kirakira,97,SB,1573845488,91,-10.46,161.92,75.97,10.74
569,barbar,,,,,,,,
570,gunnedah,1,AU,1573845844,35,-30.98,150.25,51.8,4.7
571,mokhsogollokh,86,RU,1573845844,93,61.4,128.95,-13.88,6.64
572,miranda,100,BR,1573845844,24,-20.24,-56.38,95.85,6.38
573,reconquista,0,AR,1573845844,28,-29.14,-59.64,86.22,8.95
574,qaqortoq,20,GL,1573845546,58,60.72,-46.03,28.4,1.12
575,yakeshi,0,CN,1573845845,76,49.28,120.73,-5.15,7.4
576,kidal,20,ML,1573845845,9,18.44,1.41,74.05,5.79
577,krasnokamensk,0,RU,1573845845,76,50.1,118.04,0.66,7.45
578,ulundi,85,ZA,1573845845,95,-28.29,31.43,61.23,10.6
579,male,96,UA,1573845481,64,50.74,33.7,44.35,11.83
580,otradnoye,100,RU,1573845845,90,59.77,30.8,37.4,2.24
581,buckeye,75,US,1573845641,21,33.37,-112.58,81,6.93
582,namatanai,28,PG,1573845522,76,-3.66,152.44,82.44,8.66
583,krasnoselkup,,,,,,,,
584,qui nhon,,,,,,,,
585,mayumba,100,GA,1573845520,88,-3.44,10.65,79.39,10.42
586,nagato,0,JP,1573845846,87,34.35,131.14,50,3.36
587,zhigansk,98,RU,1573845518,92,66.77,123.37,-9.27,21.07
588,serra talhada,8,BR,1573845846,15,-7.99,-38.29,99.09,5.26
589,ushumun,100,RU,1573845847,82,52.78,126.54,-4.34,14.36
590,dryden,1,CA,1573845699,51,49.79,-92.84,12.2,2.24
591,masoko,66,TZ,1573845847,44,-9.33,33.75,84.52,2.37
592,alofi,40,NU,1573845491,78,-19.06,-169.92,78.8,5.82
593,taicheng,2,CN,1573845847,80,22.25,112.8,70,1.01
594,moron,1,HT,1573845847,76,18.56,-74.26,81.54,6.62
595,layou,,,,,,,,
596,mastic beach,1,US,1573845712,39,40.77,-72.85,52,10.29
597,haines junction,100,CA,1573845849,96,60.75,-137.51,28.47,6.15
598,kolosovka,0,RU,1573845850,89,56.47,73.61,1.53,9.04
599,ozgon,,,,,,,,
600,kamenka,26,MD,1573845544,92,48.03,28.7,44.01,1.01
601,gladstone,40,AU,1573845860,88,-23.84,151.26,71.6,2.24
602,kyra,,,,,,,,
603,tilichiki,80,RU,1573845556,85,60.47,166.1,12.85,9.42
604,la serena,20,CL,1573845861,68,-29.9,-71.25,66.2,13.87
605,pisco,20,PE,1573845535,30,-13.71,-76.2,71.6,11.41
606,mabaruma,34,GY,1573845861,44,8.2,-59.78,93.11,4.29
607,ulladulla,90,AU,1573845861,100,-35.36,150.48,57.99,3.36
