,City,Cloudiness,Country,Date,Humidity,Lat,Lng,Max Temp,Wind Speed
0,oranjemund,44,ZA,1573855926,94,-28.55,16.43,61.5,11.41
1,mataura,98,NZ,1573855926,93,-46.19,168.86,50,5.99
2,anklesvar,,,,,,,,
3,vila velha,33,BR,1573855927,69,-3.71,-38.6,82.4,8.05
4,busselton,100,AU,1573855927,40,-33.64,115.35,66.99,14.43
5,barrow,99,AR,1573855342,33,-38.31,-60.23,86.92,6.85
6,pevek,0,RU,1573855345,55,69.7,170.27,8.38,3.71
7,clyde river,20,CA,1573855352,73,70.47,-68.59,19.4,6.93
8,noumea,10,NC,1573855706,44,-22.28,166.46,80.6,3.36
9,mabaruma,33,GY,1573855927,76,8.2,-59.78,81.68,5.68
10,warqla,,,,,,,,
11,ribeira grande,75,PT,1573855927,63,38.52,-28.7,62.6,10.29
12,rikitea,100,PF,1573855928,78,-23.12,-134.97,73.11,19.71
13,evensk,93,RU,1573855348,74,61.92,159.24,16.02,11.56
14,ushuaia,75,AR,1573855632,81,-54.81,-68.31,53.6,17.22
15,nizwa,0,OM,1573855928,42,22.93,57.53,61.47,4.68
16,hermanus,86,ZA,1573855928,92,-34.42,19.24,66.99,1.99
17,esperance,83,AU,1573855928,87,-33.86,121.89,51.8,6.93
18,saint-francois,20,FR,1573855336,100,46.42,3.91,30.2,4.7
19,kapaa,1,US,1573855928,74,22.08,-159.32,82.4,8.05
20,chunoyar,98,RU,1573855929,90,57.45,97.32,-8.41,4.43
21,tual,91,ID,1573855929,79,-5.67,132.75,80.42,6.87
22,vao,100,EE,1573855929,91,59.1,26.19,35.82,7.49
23,vaitupu,,,,,,,,
24,hobart,75,AU,1573855929,61,-42.88,147.33,54,11.41
25,tasiilaq,70,GL,1573855342,64,65.61,-37.64,33.8,6.93
26,saleaula,,,,,,,,
27,albany,75,US,1573855929,52,42.65,-73.75,44.01,16.11
28,chitral,100,PK,1573855930,93,35.85,71.79,24.78,2.48
29,georgetown,40,GY,1573855856,74,6.8,-58.16,86,9.17
30,riachao das neves,64,BR,1573855930,59,-11.75,-44.91,79.18,5.55
31,atuona,4,PF,1573855930,72,-9.8,-139.03,80.29,12.64
32,punta arenas,20,CL,1573855930,50,-53.16,-70.91,55.4,17.22
33,butaritari,100,KI,1573855930,80,3.07,172.79,80.82,9.04
34,kaithal,34,IN,1573855930,55,29.8,76.4,67.93,5.91
35,nikolskoye,75,RU,1573855930,80,59.7,30.79,39.2,11.18
36,dawson creek,1,CA,1573855703,97,55.76,-120.23,39.2,8.05
37,kaitangata,100,NZ,1573855890,73,-46.28,169.85,59,7
38,wahran,,,,,,,,
39,jakar,7,BT,1573855931,91,27.55,90.75,39.06,4.43
40,pandan,100,PH,1573855931,74,11.72,122.09,81.1,2.57
41,saint-joseph,100,FR,1573855931,81,43.56,6.97,46.99,4.7
42,provideniya,100,RU,1573855931,94,64.42,-173.23,19.4,14.63
43,pichayevo,0,RU,1573855931,82,51.79,41.22,33.91,13.51
44,vaini,0,IN,1573855932,95,15.34,74.49,67.19,5.97
45,bengkulu,,,,,,,,
46,mapimi,75,MX,1573855932,55,25.82,-103.85,64.4,3.36
47,abu jubayhah,,,,,,,,
48,samarai,87,PG,1573855932,91,-10.62,150.67,76.78,5.66
49,hithadhoo,26,MV,1573855932,74,-0.6,73.08,82.04,6.2
50,bambous virieux,75,MU,1573855932,69,-20.34,57.76,75.2,13.87
51,matadi,100,CD,1573855933,88,-5.83,13.46,76.17,5.97
52,castro,40,CL,1573855933,62,-42.48,-73.76,59,10.29
53,jamestown,35,AU,1573855933,80,-33.21,138.6,50.13,7.76
54,mys shmidta,,,,,,,,
55,cape town,20,ZA,1573855933,77,-33.93,18.42,66.99,18.34
56,praia da vitoria,75,PT,1573855338,63,38.73,-27.07,62.6,10.56
57,lebu,75,ET,1573855933,62,8.96,38.73,59,6.93
58,taolanaro,,,,,,,,
59,kahului,20,US,1573855934,55,20.89,-156.47,86,9.17
60,mar del plata,0,AR,1573855934,15,-46.43,-67.52,69.46,41.65
61,toliary,,,,,,,,
62,aleysk,90,RU,1573855934,95,52.5,82.77,-4.25,3.27
63,jacqueville,40,CI,1573855934,83,5.21,-4.42,82.4,6.93
64,bluff,0,AU,1573855934,71,-23.58,149.07,73.71,6.89
65,naron,40,ES,1573855934,93,43.52,-8.15,48,3.36
66,zhangjiakou,0,CN,1573855935,72,40.77,114.88,27.1,3.02
67,okha,88,RU,1573855935,88,53.59,142.95,2.93,4.16
68,saskylakh,79,RU,1573855344,96,71.97,114.09,-13.76,7.11
69,dudinka,100,RU,1573855935,76,69.41,86.18,-11.2,4.47
70,tevaitoa,9,PF,1573855935,81,-16.78,-151.5,79.3,18.88
71,calama,16,CL,1573855935,15,-22.46,-68.93,75.2,3.36
72,port alfred,85,ZA,1573855935,94,-33.59,26.89,64,9.53
73,illoqqortoormiut,,,,,,,,
74,abu samrah,88,SY,1573855935,48,35.3,37.18,63.77,5.37
75,samalaeulu,,,,,,,,
76,krasnoselkup,,,,,,,,
77,new norfolk,75,AU,1573855936,66,-42.78,147.06,54,11.41
78,port lincoln,84,AU,1573855936,64,-34.72,135.86,54.55,6.13
79,tiksi,25,RU,1573855346,99,71.64,128.87,-10.62,1.86
80,coxim,100,BR,1573855936,61,-18.5,-54.75,83.68,5.03
81,witu,1,KE,1573855937,94,-2.39,40.44,78.8,8.25
82,norman wells,90,CA,1573855347,76,65.28,-126.83,-4,16.11
83,bredasdorp,100,ZA,1573855937,82,-34.53,20.04,66.2,2.24
84,grand gaube,75,MU,1573855937,69,-20.01,57.66,75.2,13.87
85,severo-kurilsk,80,RU,1573855937,80,50.68,156.12,21.52,5.01
86,mount gambier,75,AU,1573855937,87,-37.83,140.78,48.2,5.82
87,faanui,55,PF,1573855938,81,-16.48,-151.75,79.68,16.4
88,arcachon,85,FR,1573855938,93,44.65,-1.18,42.8,8.05
89,fereydun kenar,90,IR,1573855938,93,36.69,52.52,46.4,4.7
90,carnarvon,0,ZA,1573855938,28,-30.97,22.13,68.27,11.63
91,yellowknife,90,CA,1573855344,85,62.45,-114.38,12.2,8.05
92,nemuro,0,JP,1573855938,56,43.32,145.57,35.15,26.08
93,tateyama,75,JP,1573855938,81,36.66,137.31,50,2.24
94,poronaysk,75,RU,1573855938,70,49.22,143.1,10,13.56
95,tuktoyaktuk,75,CA,1573855344,76,69.44,-133.03,-7.6,8.05
96,saint george,0,GR,1573855837,87,39.45,22.34,51.8,6.93
97,tautira,20,PF,1573855939,66,-17.73,-149.15,84.2,10.29
98,torbay,75,CA,1573855939,70,47.66,-52.73,37,10.29
99,cabo san lucas,5,MX,1573855939,69,22.89,-109.91,84.2,6.93
100,soritor,75,PE,1573855939,73,-6.14,-77.1,78.71,2.55
101,barra patuca,3,HN,1573855939,75,15.8,-84.28,82.58,14.45
102,teya,75,MX,1573855345,69,21.05,-89.07,80.6,10.29
103,geraldton,5,CA,1573855939,46,49.72,-86.95,6.8,4.7
104,aracatuba,4,BR,1573855940,66,-21.21,-50.43,81.23,6.64
105,hilo,1,US,1573855940,52,19.71,-155.08,87.8,8.05
106,bermejillo,75,MX,1573855940,55,25.89,-103.62,64.4,3.36
107,fairlie,1,US,1573855940,28,33.31,-95.96,62.01,3.36
108,namibe,6,AO,1573855940,81,-15.19,12.15,71.49,17.6
109,thompson,90,CA,1573855344,65,55.74,-97.86,5,6.93
110,sayyan,1,YE,1573855940,52,15.17,44.32,51.26,0.78
111,san cristobal,50,HN,1573855941,68,14.68,-86.92,78.03,5.75
112,bongandanga,65,CD,1573855941,88,1.51,21.07,73.98,2.64
113,rozhnyativ,67,UA,1573855941,87,48.94,24.16,46.58,4.21
114,ponta do sol,100,BR,1573855941,92,-20.63,-46,66.45,0.76
115,avarua,44,CK,1573855941,78,-21.21,-159.78,80.6,12.75
116,talnakh,45,RU,1573855357,76,69.49,88.39,-11.2,4.47
117,trinidad,40,BO,1573855681,62,-14.83,-64.9,86,5.77
118,bethel,40,US,1573855344,72,60.79,-161.76,15.8,20.8
119,srednekolymsk,100,RU,1573855942,96,67.46,153.71,4.6,3.58
120,chokurdakh,91,RU,1573855343,97,70.62,147.9,-2.52,4.85
121,tumannyy,,,,,,,,
122,amnat charoen,99,TH,1573855942,80,15.86,104.63,70,7.54
123,faya,40,SA,1573855942,62,18.39,42.45,60.8,6.93
124,lompoc,1,US,1573855942,52,34.64,-120.46,71.01,9.17
125,canyon,1,US,1573855942,18,34.98,-101.92,64.99,20.8
126,claudio,100,BR,1573855942,93,-20.44,-44.77,66.04,6.8
127,victoria,90,BN,1573855943,94,5.28,115.24,77,2.24
128,meyungs,,,,,,,,
129,aldan,100,RU,1573855943,99,58.61,125.39,-20.43,2.68
130,arraial do cabo,90,BR,1573855943,88,-22.97,-42.02,71.6,20.8
131,necochea,100,AR,1573855943,63,-38.55,-58.74,75.99,8.01
132,araouane,58,ML,1573855943,19,18.9,-3.53,71.11,1.45
133,saint-philippe,75,CA,1573855943,80,45.36,-73.48,33.01,19.46
134,lere,64,TD,1573855943,28,9.66,14.23,83.91,3.06
135,gat,81,SN,1573855943,83,14.69,-16.54,86,8.05
136,sur,0,OM,1573855944,40,22.57,59.53,70.9,3.22
137,callaway,1,US,1573855916,55,46.98,-95.91,39.2,16.11
138,carutapera,34,BR,1573855944,78,-1.2,-46.02,81.36,19.33
139,acajutla,0,SV,1573855944,72,13.59,-89.83,83.43,9.35
140,weida,100,DE,1573855944,93,50.77,12.06,44.01,6.29
141,nador,58,MA,1573855944,62,35.17,-2.93,53.6,11.41
142,tigil,100,RU,1573855944,79,57.8,158.67,33.66,19.55
143,balkanabat,74,TM,1573855944,75,39.51,54.36,36.77,9.66
144,guerrero negro,53,MX,1573855945,47,27.97,-114.04,78.6,15.17
145,souillac,75,FR,1573855945,87,45.6,-0.6,43,3.36
146,kapit,100,MY,1573855945,99,2.02,112.94,72.14,1.05
147,san patricio,0,PY,1573855945,48,-26.98,-56.83,77.59,8.3
148,papasquiaro,,,,,,,,
149,cacequi,0,BR,1573855945,68,-29.88,-54.83,71.96,8.28
150,daytona beach,90,US,1573855848,93,29.21,-81.02,69.8,8.05
151,mahebourg,75,MU,1573855946,69,-20.41,57.7,75.2,13.87
152,lilongwe,92,MW,1573855946,36,-13.97,33.79,74.86,1.5
153,boa vista,20,BR,1573855838,41,2.82,-60.67,93.2,9.17
154,nola,72,CF,1573855946,84,3.52,16.05,73.4,1.72
155,karaul,,,,,,,,
156,rio grande,20,BR,1573855946,68,-32.03,-52.1,71.6,11.41
157,codrington,0,AU,1573855946,77,-28.95,153.24,82,3.83
158,port macquarie,40,AU,1573855673,64,-31.43,152.91,72,5.82
159,vila franca do campo,75,PT,1573855858,63,37.72,-25.43,62.6,9.17
160,hualmay,30,PE,1573855947,66,-11.1,-77.61,69.39,8.99
161,havelock,90,US,1573855948,87,34.88,-76.9,55.4,13.87
162,marystown,88,CA,1573855948,2,47.17,-55.16,45,4
163,uarini,20,BR,1573855948,62,-2.98,-65.16,89.6,3.36
164,itabaiana,20,BR,1573855948,74,-10.69,-37.43,80.6,14.99
165,kropotkin,0,RU,1573855948,58,45.43,40.58,47.05,19.33
166,hobyo,1,SO,1573855949,78,5.35,48.53,78.82,14.81
167,ye,,,,,,,,
168,opunake,45,NZ,1573855949,93,-39.45,173.86,64,8.01
169,fortuna,20,US,1573855894,77,40.6,-124.16,62.6,11.41
170,matsanga,,,,,,,,
171,camacha,40,PT,1573855949,67,33.08,-16.33,64.4,17.22
172,cidreira,0,BR,1573855680,75,-30.17,-50.22,69.48,17.43
173,prince rupert,90,CA,1573855356,93,54.32,-130.32,48.2,10.29
174,barbar,,,,,,,,
175,ust-omchug,100,RU,1573855950,97,61.13,149.63,0.39,9.8
176,caravelas,53,BR,1573855950,79,-17.73,-39.27,76.82,13.15
177,olafsvik,,,,,,,,
178,east london,41,ZA,1573855866,87,-33.02,27.91,68.31,6.89
179,erenhot,8,CN,1573855950,47,43.65,111.97,30.6,9.78
180,kipushi,100,CD,1573855950,93,-11.76,27.24,64.42,5.01
181,inverell,0,AU,1573855951,24,-29.78,151.11,82,2.1
182,arica,23,CL,1573855951,60,-18.48,-70.32,69.8,10.29
183,antofagasta,20,CL,1573855826,68,-23.65,-70.4,64.4,11.41
184,peace river,40,CA,1573855934,99,56.23,-117.29,33.8,12.75
185,cherskiy,99,RU,1573855951,85,68.75,161.3,7.88,0.07
186,omboue,100,GA,1573855951,97,-1.57,9.26,75.04,3.04
187,albanel,90,CA,1573855951,72,48.88,-72.44,21.99,17.22
188,samoylovka,0,RU,1573855951,85,51.19,43.71,33.98,11.07
189,madre de deus,20,BR,1573855952,78,-12.74,-38.62,80.6,18.34
190,lata,100,IN,1573855952,61,30.78,78.62,23.09,2.06
191,margate,75,AU,1573855952,61,-43.03,147.26,54,11.41
192,saint-pierre,1,FR,1573855952,93,48.95,4.24,39.2,10.29
193,the pas,90,CA,1573855952,72,53.82,-101.24,15.8,19.46
194,twin falls,1,US,1573855952,30,42.57,-114.46,59,8.05
195,chushan,0,CN,1573855952,54,33.3,113.65,51.67,4.18
196,sidi bin nur,100,TN,1573855952,82,35.53,10.92,64.4,5.82
197,jumla,100,NP,1573855953,42,29.28,82.18,39.65,4.12
198,upernavik,100,GL,1573855953,88,72.79,-56.15,23.95,11.79
199,kavieng,4,PG,1573855953,73,-2.57,150.8,83.32,8.01
200,ruatoria,,,,,,,,
201,luanda,75,AO,1573855953,78,-8.83,13.24,80.6,11.41
202,shenjiamen,0,CN,1573855953,72,29.96,122.3,65.95,17.34
203,aswan,13,EG,1573855953,23,24.09,32.9,75.2,12.75
204,the valley,20,AI,1573855954,65,18.22,-63.06,82.4,9.17
205,kodiak,1,US,1573855954,37,39.95,-94.76,57.2,9.17
206,pisco,40,PE,1573855954,30,-13.71,-76.2,71.6,5.82
207,cacu,100,BR,1573855954,77,-18.56,-51.13,74.77,3.85
208,constitucion,5,MX,1573855954,34,23.99,-104.67,66.2,3.22
209,port elizabeth,1,US,1573855954,52,39.31,-74.98,48.99,3.85
210,ventspils,90,LV,1573855728,93,57.39,21.56,44.6,5.82
211,algiers,1,US,1573855825,38,29.94,-90.04,60.8,10.29
212,groningen,98,NL,1573855954,100,53.22,6.57,42.01,1.12
213,mont-de-marsan,39,FR,1573855955,100,43.89,-0.5,41,2.24
214,bria,100,CF,1573855955,64,6.54,21.99,74.73,3.02
215,les cayes,82,HT,1573855955,70,18.19,-73.75,82.92,5.23
216,krylovskaya,0,RU,1573855955,69,46.32,39.96,44.33,21.09
217,mmathubudukwane,0,BW,1573855955,29,-24.61,26.43,75.2,8.05
218,lagoa,0,PT,1573855955,57,37.14,-8.45,52,10.29
219,sitka,0,US,1573855955,27,37.17,-99.65,66.99,11.99
220,acarau,,,,,,,,
221,nizhneyansk,,,,,,,,
222,yarensk,67,RU,1573855956,93,62.17,49.09,32.18,7.34
223,flinders,90,AU,1573855956,82,-34.58,150.85,70,4.7
224,touros,20,BR,1573855956,78,-5.2,-35.46,78.8,9.17
225,zhigansk,93,RU,1573855956,93,66.77,123.37,-7.65,20.2
226,blind river,1,CA,1573855956,49,46.19,-82.96,26.6,8.05
227,yerbogachen,100,RU,1573855956,95,61.28,108.01,-21.87,1.66
228,mundo nuevo,75,CL,1573855956,53,-32.72,-71.41,77,14.99
229,komsomolskiy,100,RU,1573855957,94,67.55,63.78,5.45,20.13
230,atar,68,MR,1573855957,14,20.52,-13.05,77.88,4.99
231,hamina,36,FI,1573855957,92,60.57,27.2,26.6,8.05
232,kruisfontein,0,ZA,1573855957,96,-34,24.73,60.35,3.53
233,sentyabrskiy,,,,,,,,
234,korla,,,,,,,,
235,chagda,,,,,,,,
236,oistins,20,BB,1573855889,74,13.07,-59.53,82.4,10.29
237,airai,66,TL,1573855957,27,-8.93,125.41,68.95,4.83
238,khatanga,91,RU,1573855958,97,71.98,102.47,-11.97,6.73
239,jambi,67,ID,1573855930,95,-1.6,103.62,72.82,1.74
240,elbistan,100,TR,1573855958,69,38.2,37.19,44.98,1.05
241,aksay,3,KZ,1573855958,58,51.17,53.01,30.43,5.73
242,buraydah,75,SA,1573855958,88,26.33,43.97,64.4,3.36
243,tuatapere,100,NZ,1573855958,93,-46.13,167.69,50,5.99
244,williams lake,90,CA,1573855958,93,52.13,-122.14,39.2,2.24
245,ancud,40,CL,1573855959,62,-41.87,-73.83,59,10.29
246,honiara,75,SB,1573855906,88,-9.43,159.96,80.6,2.24
247,mayo,90,CA,1573855959,71,63.59,-135.9,3.2,11.41
248,kirakira,100,SB,1573855959,95,-10.46,161.92,75.76,11.43
249,kostomuksha,99,RU,1573855959,89,64.59,30.6,29.21,8.5
250,walvis bay,68,NA,1573855959,87,-22.95,14.51,61,6.93
251,lyuban,80,BY,1573855959,83,52.8,28,37.96,7.65
252,yangambi,41,CD,1573855959,78,0.77,24.47,74.44,3.02
253,manzanillo,90,MX,1573855960,70,19.05,-104.32,84.2,11.41
254,nadym,100,RU,1573855960,91,65.53,72.51,0.59,23.22
255,bathsheba,20,BB,1573855960,74,13.22,-59.52,82.4,10.29
256,herzele,30,BE,1573855960,86,50.88,3.89,41,4.7
257,makakilo city,1,US,1573855960,70,21.35,-158.09,86,5.82
258,lamar,1,US,1573855960,27,38.09,-102.62,62.6,3.09
259,posse,100,BR,1573855960,57,-14.08,-46.36,80.92,2.24
260,hermosillo,100,MX,1573855862,23,29.09,-110.96,90,4
261,kamenskoye,,,,,,,,
262,kuche,,,,,,,,
263,grindavik,40,IS,1573855961,74,63.84,-22.43,37.4,14.99
264,kudahuvadhoo,100,MV,1573855961,73,2.67,72.89,82.18,2.39
265,daru,100,PG,1573855961,85,-9.07,143.21,79.05,4.14
266,lima,90,PE,1573855923,73,-12.06,-77.04,69.8,12.75
267,klaksvik,100,FO,1573855961,74,62.23,-6.59,37.4,13.87
268,tazovskiy,100,RU,1573855962,96,67.47,78.7,-14.26,13.22
269,naples,40,IT,1573855707,72,40.84,14.25,68,10.29
270,narathiwat,75,TH,1573855962,100,6.43,101.8,75.2,2.24
271,agadir,0,MA,1573855898,41,30.42,-9.58,60.8,16.11
272,tamandare,100,BR,1573855962,97,-8.28,-70.75,75.99,3.85
273,itabuna,100,BR,1573855962,83,-14.79,-39.28,80.6,9.17
274,kutum,1,SD,1573855962,32,14.2,24.66,72.99,9.26
275,annau,90,TM,1573855962,93,37.89,58.52,42.8,4.7
276,cedar city,1,US,1573855847,18,37.68,-113.06,62.6,13.87
277,cabedelo,1,BR,1573855963,78,-6.97,-34.84,78.8,12.75
278,palaia fokaia,0,GR,1573855963,93,37.72,23.95,63,3.36
279,ahipara,1,NZ,1573855963,86,-35.17,173.16,62.37,12.08
280,fare,33,PF,1573855963,81,-16.7,-151.02,79.65,17.69
281,willmar,1,US,1573855803,56,45.12,-95.04,48.2,11.41
282,roseburg,90,US,1573855917,82,43.22,-123.34,59,4.7
283,sao joao da barra,90,BR,1573855963,94,-21.64,-41.05,71.6,13.87
284,bekobod,75,TJ,1573855964,75,40.22,69.26,41,2.24
285,longyearbyen,75,NO,1573855964,59,78.22,15.63,33.8,25.28
286,fallon,1,US,1573855964,57,46.84,-105.12,48.2,12.75
287,kaili,82,ID,1573855964,80,-3.46,120.21,59.47,4.12
288,salto,40,BR,1573855964,77,-23.2,-47.29,75.99,20.8
289,sao filipe,71,CV,1573855964,76,14.9,-24.5,72.57,11.61
290,rungata,,,,,,,,
291,clinton,1,US,1573855965,55,41.28,-72.53,50,6.04
292,vysokaya gora,,,,,,,,
293,moron,4,HT,1573855965,73,18.56,-74.26,81.48,2.71
294,cockburn town,75,TC,1573855965,74,21.46,-71.14,80.6,6.93
295,waingapu,100,ID,1573855965,74,-9.65,120.26,81.82,3.71
296,aripuana,16,BR,1573855965,63,-9.17,-60.63,83.03,2.89
297,sainte-maxime,100,FR,1573855965,81,43.31,6.64,46.99,4.7
298,phan thiet,93,VN,1573855965,92,10.93,108.1,69.66,2.28
299,attawapiskat,,,,,,,,
300,tibati,56,CM,1573855966,55,6.47,12.63,74.34,2.15
301,maniitsoq,100,GL,1573855966,91,65.42,-52.9,28.38,10.29
302,placido de castro,100,BR,1573855966,99,-10.34,-67.19,74.07,1.32
303,barentsburg,,,,,,,,
304,ahuimanu,20,US,1573855966,58,21.44,-157.84,86,5.82
305,togul,67,RU,1573855966,94,53.47,85.91,-11.02,0.67
306,umzimvubu,,,,,,,,
307,dunedin,100,NZ,1573855967,74,-45.87,170.5,55.36,4.18
308,grand river south east,,,,,,,,
309,qaanaaq,100,GL,1573855967,96,77.48,-69.36,20.68,4.29
310,pacific grove,1,US,1573855967,67,36.62,-121.92,71.01,8.05
311,orgun,,,,,,,,
312,cayenne,2,GF,1573855779,78,4.94,-52.33,78.8,3.36
313,oxford,90,US,1573855967,93,33.61,-85.83,51.01,3.36
314,maceio,100,BR,1573855954,78,-9.67,-35.74,77,11.41
315,chuy,10,UY,1573855968,73,-33.69,-53.46,66.38,9.06
316,soyo,100,AO,1573855968,87,-6.13,12.37,79.2,6.69
317,yar-sale,100,RU,1573855968,95,66.83,70.83,3.07,22.62
318,lapeer,1,US,1573855803,69,43.05,-83.32,35.6,9.6
319,suicheng,0,CN,1573855968,29,33.9,117.93,53.82,1.05
320,qaqortoq,20,GL,1573855968,53,60.72,-46.03,24.8,8.05
321,karamay,,,,,,,,
322,meulaboh,90,ID,1573855969,83,4.14,96.13,79.11,8.86
323,beyneu,0,KZ,1573855969,78,45.32,55.19,31.12,7.4
324,leh,99,IN,1573855969,69,34.16,77.58,16.99,4.83
325,olinda,20,AU,1573855969,62,-37.84,145.39,57,12.75
326,patitirion,20,GR,1573855969,87,39.15,23.87,57.2,6.78
327,lielvarde,90,LV,1573855969,93,56.72,24.81,42.8,5.82
328,maiduguri,98,NG,1573855969,17,11.84,13.15,82.62,7.07
329,boma,19,GH,1573855970,69,7.08,-2.17,74.21,0.83
330,ler,70,NO,1573855720,85,63.2,10.3,32,11.41
331,mayumba,100,GA,1573855970,82,-3.44,10.65,80.35,7.36
332,calatayud,99,ES,1573855970,75,41.35,-1.64,44.6,1.12
333,gao,24,ML,1573855970,14,16.28,-0.04,78.75,7.18
334,kungurtug,100,RU,1573855970,92,50.6,97.53,-1.7,7.07
335,jiroft,,,,,,,,
336,hofn,100,IS,1573855970,80,64.25,-15.21,45.86,24.02
337,berea,1,US,1573855971,52,37.57,-84.3,46.99,5.82
338,benguela,98,AO,1573855971,77,-12.58,13.4,77.47,4.97
339,puerto ayora,75,EC,1573855971,61,-0.74,-90.35,78.8,13.87
340,moerai,27,PF,1573855971,73,-22.43,-151.33,74.68,17.38
341,mutoko,100,ZW,1573855971,68,-17.4,32.23,72,1.99
342,kabanjahe,40,ID,1573855971,100,3.1,98.49,77,3.36
343,chateaubelair,40,VC,1573855971,74,13.28,-61.25,84.2,8.05
344,stonehaven,20,GB,1573855971,93,56.96,-2.22,41,11.41
345,darnah,0,LY,1573855972,58,32.77,22.64,69.12,5.93
346,tilichiki,71,RU,1573855972,82,60.47,166.1,10.8,9.82
347,labuhan,99,ID,1573855972,81,-2.54,115.51,72.32,1.5
348,katobu,0,ID,1573855972,87,-4.94,122.53,73.35,3.83
349,flagstaff,1,US,1573855728,16,35.2,-111.65,75,4.7
350,tadine,57,NC,1573855972,59,-21.55,167.88,76.95,11.95
351,dumas,0,IN,1573855972,61,21.09,72.71,81.66,4.61
352,lucea,40,JM,1573855972,74,18.44,-78.17,82.99,5.82
353,belushya guba,,,,,,,,
354,riverton,1,US,1573855812,38,43.02,-108.38,50,1.92
355,ilulissat,100,GL,1573855973,92,69.22,-51.1,28.4,10.29
356,baffa,100,PK,1573855973,75,34.44,73.22,49.95,6.55
357,port keats,33,AU,1573855973,82,-14.25,129.55,81,6.78
358,nalut,100,LY,1573855973,24,31.86,10.98,66.54,17.07
359,wanaka,100,NZ,1573855973,98,-44.7,169.14,40.26,2.89
360,alofi,20,NU,1573855973,69,-19.06,-169.92,82.4,10.29
361,pomabamba,100,PE,1573855974,73,-8.82,-77.46,50.2,8.46
362,mnogovershinnyy,98,RU,1573855974,88,53.94,139.92,0.54,4.05
363,kosh-agach,83,RU,1573855974,82,49.99,88.66,-15.88,9.04
364,bastia,75,IT,1573855866,81,44.6,8.98,48.2,4.7
365,gizo,20,IL,1573855974,73,31.8,34.94,70,3.36
366,sfantu gheorghe,90,RO,1573855974,100,44.65,26.83,51.8,5.82
367,kulhudhuffushi,100,MV,1573855974,74,6.62,73.07,82.85,8.05
368,coquimbo,20,CL,1573855974,77,-29.95,-71.34,62.6,11.41
369,dikson,0,RU,1573855975,93,73.51,80.55,-1.71,7.87
370,vanavara,0,RU,1573855975,94,60.35,102.28,-26.79,2.24
371,manta,35,RO,1573855975,93,45.1,24.1,47.86,4.07
372,la ronge,90,CA,1573855828,73,55.1,-105.3,23,13.87
373,nome,1,US,1573855975,42,30.04,-94.42,64,9.17
374,warrington,20,GB,1573855975,81,53.39,-2.59,45,12.75
375,neyshabur,9,IR,1573855975,66,36.21,58.79,33.22,7.96
376,poum,0,MK,1573855975,89,41.28,20.71,45.21,5.3
377,nuuk,40,GL,1573855976,68,64.17,-51.74,30.2,14.99
378,takaka,33,NZ,1573855976,93,-40.86,172.81,66,10
379,merauke,96,ID,1573855976,88,-8.49,140.4,76.78,5.5
380,sorong,0,ID,1573855976,98,-0.86,131.25,71.22,1.88
381,kavaratti,25,IN,1573855976,72,10.57,72.64,81.54,5.37
382,mehamn,75,NO,1573855976,84,71.03,27.85,35.6,3.36
383,san rafael del sur,20,NI,1573855976,59,11.85,-86.44,89.6,20.8
384,amderma,,,,,,,,
385,tsihombe,,,,,,,,
386,sirajganj,0,BD,1573855977,70,24.46,89.71,72.9,0.54
387,sao geraldo do araguaia,42,BR,1573855977,46,-6.4,-48.55,87.53,2.75
388,youghal,20,IE,1573855977,93,51.95,-7.85,41,18.34
389,coulihaut,,,,,,,,
390,alugan,100,PH,1573855977,89,12.22,125.48,77.63,8.01
391,aykhal,90,RU,1573855978,83,65.95,111.51,-14.8,4.47
392,opuwo,71,NA,1573855978,21,-18.06,13.84,74.71,12.75
393,takestan,20,IR,1573855978,55,36.07,49.69,39.2,2.24
394,akwatia,59,GH,1573855978,94,6.04,-0.8,75.09,3.02
395,hami,100,CN,1573855978,38,42.84,93.51,35.78,15.52
396,shu,4,KZ,1573855978,60,43.6,73.76,31.86,3.47
397,aklavik,40,CA,1573855979,76,68.22,-135.01,-5.8,2.24
398,traverse city,40,US,1573855979,55,44.76,-85.62,35.6,5.82
399,ostrovnoy,72,RU,1573855979,88,68.05,39.51,25.52,22.64
400,abu dhabi,63,AE,1573855822,73,24.47,54.37,73.4,1.12
401,harnai,65,PK,1573855979,63,30.1,67.94,60.96,2.28
402,coihaique,40,CL,1573855979,44,-45.58,-72.07,57.2,9.17
403,portland,20,US,1573855681,45,43.66,-70.25,45,3.36
404,hueytown,75,US,1573855979,46,33.45,-87,55,6.93
405,skibbereen,20,IE,1573855980,62,51.55,-9.27,37.4,18.34
406,torres,0,BR,1573855980,73,-29.34,-49.73,69.48,22.37
407,champerico,75,MX,1573855980,78,16.38,-93.6,73.4,20.8
408,liverpool,20,GB,1573855680,81,53.41,-2.98,46.4,12.75
409,omsukchan,100,RU,1573855980,100,62.53,155.8,-4.85,6.24
410,samusu,,,,,,,,
411,port hedland,0,AU,1573855980,49,-20.31,118.58,73.4,6.93
412,eisenhuttenstadt,,,,,,,,
413,port-gentil,20,GA,1573855980,94,-0.72,8.78,77,2.24
414,mana,13,NG,1573855981,20,13.03,5.27,83.68,6.04
415,shingu,0,JP,1573855981,60,33.72,135.99,54.14,9.78
416,breytovo,100,RU,1573855981,84,58.3,37.86,35.53,10.49
417,tawkar,,,,,,,,
418,atbasar,37,KZ,1573855981,84,51.81,68.36,5.63,9.08
419,wencheng,0,CN,1573855981,92,27.79,120.09,46.35,1.86
420,pasuruan,52,ID,1573855981,66,-7.64,112.91,81.09,5.91
421,barbastro,92,ES,1573855981,93,42.04,0.13,41,13.87
422,palabuhanratu,,,,,,,,
423,salalah,20,OM,1573855982,65,17.01,54.1,78.8,1.12
424,buala,64,SB,1573855982,73,-8.15,159.59,82.49,3.4
425,turukhansk,92,RU,1573855982,93,65.8,87.96,-17.52,3.87
426,road town,40,VG,1573855964,74,18.42,-64.62,84.2,5.82
427,misratah,100,LY,1573855982,58,32.38,15.09,72.19,20
428,toamasina,75,MG,1573855983,94,-18.17,49.38,75.2,14.5
429,onufriyivka,58,UA,1573855983,62,48.91,33.45,45.9,9.44
430,vardo,5,US,1573855983,45,39.62,-77.74,51.01,6.2
431,nishihara,20,JP,1573855983,81,35.74,139.53,53.01,2.24
432,catamarca,,,,,,,,
433,saldanha,97,PT,1573855983,87,41.42,-6.55,38.12,8.75
434,haapiti,20,PF,1573855983,66,-17.57,-149.87,84.2,10.29
435,yatou,20,CM,1573855983,94,3.63,9.81,78.8,3.83
436,raudeberg,75,NO,1573855984,80,61.99,5.14,35.6,5.82
437,axim,1,GH,1573855984,88,4.87,-2.24,76.78,3.11
438,yichang,0,CN,1573855984,65,30.77,111.32,53.31,1.92
439,dorado,40,PR,1573855984,70,18.46,-66.27,84.2,11.41
440,suez,0,EG,1573855984,68,29.97,32.54,67.68,9.01
441,shimoda,0,JP,1573855984,78,34.7,138.93,52,12.33
442,stornoway,,,,,,,,
443,kokkola,92,FI,1573855985,88,63.84,23.13,35.01,5.01
444,marcona,,,,,,,,
445,san juan,0,AR,1573855974,17,-31.54,-68.53,96.67,7.07
446,iskateley,100,RU,1573855985,88,67.68,53.15,32.67,28.23
447,bubaque,100,GW,1573855985,73,11.28,-15.83,82.92,12.59
448,chapais,90,CA,1573855985,70,49.78,-74.86,1.4,11.41
449,lengshuijiang,68,CN,1573855985,65,27.66,111.45,58.84,2.57
450,san pedro,14,AR,1573855866,44,-33.68,-59.66,84,4
451,santa isabel,20,MX,1573855986,17,32.63,-115.58,86,4.7
452,soure,20,PT,1573855986,76,40.06,-8.63,51.01,13.87
453,isangel,75,VU,1573855986,62,-19.55,169.27,84.2,9.17
454,eidfjord,100,NO,1573855986,84,60.47,7.07,21,7.18
455,husavik,58,CA,1573855987,61,50.56,-96.99,24.01,7
456,boyolangu,99,ID,1573855987,93,-8.09,111.9,71.11,4.38
457,matamoros,1,US,1573855987,42,25.87,-97.51,64.4,9.17
458,prescott,1,US,1573855987,17,34.54,-112.47,73.99,8.05
459,bac lieu,,,,,,,,
460,jasper,1,US,1573855842,40,33.83,-87.28,55,8.48
461,richards bay,0,ZA,1573855987,80,-28.77,32.06,70.99,25.72
462,muriti,100,TZ,1573855987,71,-1.99,32.93,73.56,7.45
463,salamiyah,100,SY,1573855988,59,35.01,37.05,65.03,2.51
464,linjiang,55,CN,1573855988,78,41.81,126.91,12.11,2.46
465,sarangani,18,PH,1573855988,77,5.4,125.46,82.18,13.94
466,leshukonskoye,100,RU,1573855988,83,64.9,45.76,33.13,12.26
467,thiruvananthapuram,40,IN,1573855988,88,8.48,76.92,80.6,3.36
468,batagay,100,RU,1573855988,99,67.65,134.64,-22.9,0.13
469,point fortin,20,TT,1573855988,70,10.16,-61.68,84.2,3.36
470,guebwiller,100,FR,1573855989,86,47.91,7.21,39,6.93
471,luderitz,0,NA,1573855989,87,-26.65,15.16,60.8,13.87
472,okato,32,NZ,1573855831,92,-39.19,173.88,64,10
473,vestmannaeyjar,100,IS,1573855989,63,63.44,-20.27,42.98,21.25
474,tura,79,RU,1573855989,100,64.27,100.22,-28.52,1.48
475,duarte,1,US,1573855989,56,34.14,-117.98,73.99,3.36
476,fort nelson,40,CA,1573855989,72,58.81,-122.69,10.4,3.36
477,verkhnyaya inta,100,RU,1573855990,98,65.99,60.32,34.52,21.92
478,eagle pass,5,MX,1573855990,42,28.71,-100.5,64.4,2.37
479,moirang,0,IN,1573855990,94,24.5,93.78,54.57,0.47
480,mount isa,14,AU,1573855990,14,-20.73,139.49,78.8,11.41
481,hervey bay,33,AU,1573855990,69,-25.3,152.85,81,14.99
482,koshurnikovo,100,RU,1573855990,92,54.3,93.39,-10.75,1.99
483,calvinia,0,ZA,1573855990,43,-31.47,19.78,68.09,4.85
484,ngunguru,54,NZ,1573855991,65,-35.62,174.5,73,5.01
485,princeton,1,US,1573855821,39,40.35,-74.66,50,4.7
486,lindsay,90,CA,1573855991,69,44.36,-78.74,37,11.41
487,kaeo,2,NZ,1573855991,65,-35.1,173.78,73,5.01
488,giyani,0,ZA,1573855991,48,-23.32,30.73,73.54,4.5
489,henties bay,34,NA,1573855991,90,-22.12,14.28,61,5.99
490,adrar,0,DZ,1573855991,21,27.87,-0.29,73.4,13.87
491,djenne,0,ML,1573855992,20,13.91,-4.55,82.47,4.79
492,westport,1,US,1573855863,57,41.14,-73.36,51.01,5.82
493,katsuura,20,JP,1573855992,61,33.93,134.5,46.4,9.17
494,port blair,40,IN,1573855992,94,11.67,92.75,77,1.12
495,san felipe,0,CL,1573855936,39,-32.75,-70.73,89.01,3
496,luangwa,100,MZ,1573855992,66,-15.62,30.4,80.2,1.05
497,salunayan,0,PH,1573855992,86,7.15,124.5,70.79,0.67
498,novyy urgal,100,RU,1573855993,97,51.07,132.56,-9.17,2.46
499,yuli,100,CN,1573855993,91,24.82,106.77,61.3,2.8
500,cotonou,20,BJ,1573855993,83,6.37,2.43,82.4,4.7
501,lavrentiya,31,RU,1573855993,77,65.58,-170.99,25.18,23.71
502,ngukurr,,,,,,,,
503,palau,20,ES,1573855993,80,42.18,2.97,48,2.24
504,boende,100,CD,1573855993,94,-0.28,20.88,73.58,2.48
505,kegayli,,,,,,,,
506,finschhafen,100,PG,1573855994,87,-6.6,147.85,78.1,13.8
507,tubruq,,,,,,,,
508,weiser,20,US,1573855989,41,44.25,-116.97,59,0.58
509,energetik,0,RU,1573855994,85,51.74,58.8,25.38,7.2
510,ust-kamchatsk,,,,,,,,
511,slave lake,90,CA,1573855995,85,55.28,-114.77,32,6.93
512,nabire,70,ID,1573855995,97,-3.36,135.5,69.96,2.24
513,labuan,90,BN,1573855943,94,5.28,115.24,77,2.24
514,ouallam,5,NE,1573855995,12,14.32,2.08,85.39,7.65
515,ulyanovo,,,,,,,,
516,sinnamary,0,GF,1573855995,75,5.38,-52.96,82.99,13.69
517,bababe,,,,,,,,
518,umm ruwabah,,,,,,,,
519,disna,,,,,,,,
520,muisne,75,EC,1573855996,83,0.61,-80.02,80.6,12.75
521,fernley,20,US,1573855996,16,39.61,-119.25,66.2,5.82
522,hongjiang,98,CN,1573855996,80,27.21,109.83,61.75,1.43
523,elizabeth city,90,US,1573855831,93,36.3,-76.22,50,12.75
524,camopi,99,GF,1573855996,51,3.17,-52.33,86.29,1.88
525,nanortalik,83,GL,1573855997,71,60.14,-45.24,32.13,16.64
526,inhambane,1,MZ,1573855997,75,-23.87,35.38,71.33,8.21
527,comodoro rivadavia,40,AR,1573855997,14,-45.87,-67.48,71.6,38.03
528,christchurch,67,NZ,1573855997,40,-43.53,172.64,72,19.46
529,anadyr,20,RU,1573855997,85,64.73,177.51,17.6,8.95
530,tsiroanomandidy,100,MG,1573855997,76,-18.77,46.05,73.81,3.67
531,jalu,0,LY,1573855997,39,29.03,21.55,60.75,8.21
532,galesong,20,ID,1573855998,100,-5.32,119.37,69.8,1.12
533,radebeul,68,DE,1573855998,76,51.1,13.68,50,10.29
534,deputatskiy,87,RU,1573855998,99,69.3,139.9,-9.26,0.38
535,college,75,US,1573855998,54,64.86,-147.8,7,14.99
536,farias brito,40,BR,1573855998,18,-6.93,-39.57,96.8,5.82
537,avera,90,US,1573855998,93,33.19,-82.53,51.8,12.75
538,najran,0,SA,1573855998,42,17.54,44.22,64.4,3.36
539,copperas cove,1,US,1573855999,31,31.12,-97.9,63,3.36
540,marawi,0,PH,1573855812,82,8,124.29,73.99,5.99
541,taltal,36,CL,1573855999,74,-25.41,-70.49,61.63,4.52
542,san policarpo,100,PH,1573855999,89,12.18,125.51,77.63,8.01
543,laguna,75,BZ,1573855999,70,16.17,-88.94,86,5.41
544,santa cruz del sur,21,CU,1573855999,76,20.71,-78,80.83,2.08
545,odate,3,JP,1573855999,51,40.3,140.55,42.01,7
546,lakes entrance,0,AU,1573856000,53,-37.88,147.99,60.01,3
547,egvekinot,37,RU,1573856000,93,66.32,-179.17,9.05,12.68
548,krasnyy chikoy,99,RU,1573856000,89,50.36,108.75,3.42,2.93
549,sapa,75,PH,1573856000,94,14.32,120.76,80.01,2.24
550,mahibadhoo,100,MV,1573856000,89,3.78,72.97,78.89,13.71
551,piryetos,,,,,,,,
552,lakselv,75,NO,1573856000,80,70.05,24.96,30.2,14.99
553,empalme,40,MX,1573856000,54,27.96,-110.81,91.99,14.99
554,sioux lookout,40,CA,1573855794,51,50.1,-91.92,14,3.36
555,celestun,98,MX,1573856001,78,20.87,-90.4,78.1,20.8
556,jian,0,IN,1573856001,69,25.65,87.89,70.9,6.29
557,alamogordo,1,US,1573855858,26,32.9,-105.96,63,4.38
558,valparaiso,90,US,1573855773,80,41.47,-87.06,37.99,3.36
559,berlevag,75,NO,1573856001,72,70.86,29.09,35.6,8.05
560,sanhsia,,,,,,,,
561,crateus,14,BR,1573856002,29,-5.18,-40.68,89.6,3.38
562,dusti,75,TJ,1573856002,93,37.35,68.68,44.6,3.47
563,bonthe,100,SL,1573856002,83,7.53,-12.5,79.59,5.59
564,santa cruz de la palma,75,ES,1573856002,63,28.68,-17.76,66.2,16.11
565,kralendijk,20,BQ,1573856002,74,12.15,-68.27,84.2,11.41
566,tucurui,60,BR,1573856002,59,-3.77,-49.67,86.79,3.18
567,almaznyy,0,RU,1573856002,80,48.03,40.04,41,22.37
568,naze,75,NG,1573856003,88,5.43,7.07,78.8,3.15
569,umm lajj,100,SA,1573856003,65,25.02,37.27,77.11,5.19
570,yulara,0,AU,1573856003,14,-25.24,130.99,69.8,14.99
571,eldorado,91,BR,1573856003,73,-24.52,-48.11,71.11,2.44
572,domoni,,,,,,,,
573,troy,75,US,1573856003,52,42.73,-73.69,44.01,16.11
574,yenagoa,100,NG,1573856003,93,4.92,6.26,76.98,3.6
575,lorengau,16,PG,1573856004,74,-2.02,147.27,82.58,6.76
576,guasdualito,20,VE,1573856004,59,7.24,-70.73,89.6,3.36
577,corowa,0,AU,1573856004,54,-36,146.39,57,12.75
578,aksu,0,KZ,1573856004,83,52.04,76.93,-7.6,4.47
579,namatanai,34,PG,1573856004,74,-3.66,152.44,82.71,7.7
580,nouakchott,77,MR,1573856004,34,18.08,-15.98,80.6,8.05
581,hilton head island,90,US,1573856004,100,32.16,-80.75,55.99,13.87
582,rio gallegos,40,AR,1573856005,51,-51.62,-69.22,59,20.8
583,shaunavon,86,CA,1573856005,83,49.65,-108.41,36.66,15.01
584,baykit,86,RU,1573856005,98,61.68,96.39,-22.04,0.74
585,kununurra,17,AU,1573856005,88,-15.77,128.74,75.2,2.53
586,sistranda,0,NO,1573856005,65,63.73,8.83,39,20.8
587,quatre cocos,75,MU,1573856005,69,-20.21,57.76,75.2,13.87
588,vestmanna,100,FO,1573856005,74,62.16,-7.17,37.4,13.87
589,itarema,26,BR,1573856006,75,-2.92,-39.92,78.55,10.58
590,iqaluit,90,CA,1573856006,57,63.75,-68.52,19.4,3.36
591,san quintin,100,PH,1573856006,86,17.54,120.52,70.9,4.54
592,el eden,5,MX,1573856006,34,24,-104.65,66.2,3.22
593,siguiri,34,GN,1573856006,35,11.42,-9.17,83.55,4.09
594,alta floresta,20,BR,1573856006,66,-9.87,-56.08,87.8,3.36
595,palmer,20,AU,1573856006,58,-34.85,139.16,59,4.7
596,chaman,0,AF,1573856006,54,30.92,66.46,49.42,3.36
597,te anau,100,NZ,1573855848,94,-45.41,167.72,47.32,4.16
598,conceicao da barra,56,BR,1573856007,82,-18.59,-39.73,78.91,20.54
599,antsohihy,100,MG,1573856007,82,-14.88,47.99,79.7,1.97
600,vostochnyy,100,RU,1573856007,86,55.82,37.87,34,8.95
601,stoyba,,,,,,,,
602,sao felix do xingu,82,BR,1573856007,64,-6.64,-51.99,84.13,1.03
603,broken hill,0,AU,1573856008,62,-31.97,141.45,57.2,17.22
604,araceli,93,PH,1573856008,81,10.55,119.99,79.77,4.34
605,ternate,75,PH,1573856008,94,14.29,120.72,80.01,2.24
606,gravdal,100,NO,1573856008,47,59.79,5.78,39.99,1.12
607,bitung,20,ID,1573856008,94,1.44,125.19,73.4,1.61
608,yanam,52,IN,1573856008,89,16.73,82.22,72.14,3.06
609,caohai,100,CN,1573856008,91,26.87,104.28,52.47,2.89
610,seymchan,96,RU,1573856008,92,62.93,152.39,-6.72,8.34
611,le bouscat,79,FR,1573856008,93,44.87,-0.6,43,6.93
612,bilibino,92,RU,1573856009,59,68.06,166.44,-1.8,2.13
