,City,Cloudiness,Country,Date,Humidity,Lat,Lng,Max Temp,Wind Speed
0,zyryanka,80,RU,1573664923,97,65.73,150.89,-0.58,3.09
1,dikson,82,RU,1573664923,95,73.51,80.55,9.66,6.11
2,hwange,100,ZW,1573664923,70,-18.35,26.5,75.76,5.35
3,ribeira grande,20,PT,1573664924,59,38.52,-28.7,66.2,18.34
4,hasaki,75,JP,1573664924,82,35.73,140.83,62.6,9.17
5,avarua,100,CK,1573664924,88,-21.21,-159.78,75.2,18.34
6,new norfolk,40,AU,1573664924,57,-42.78,147.06,52,10.29
7,yellowknife,90,CA,1573664924,77,62.45,-114.38,3.2,6.93
8,rancho palos verdes,90,US,1573664924,87,33.75,-118.37,70,8.5
9,mataura,77,NZ,1573664925,94,-46.19,168.86,42.01,2.1
10,niksar,0,TR,1573664925,27,40.59,36.95,52.11,6.53
11,madimba,20,CM,1573664925,62,4.42,9.93,86,4.7
12,cape town,0,ZA,1573664925,53,-33.93,18.42,71.6,21.92
13,dargaville,100,NZ,1573664925,93,-35.94,173.86,55.2,6.22
14,abu samrah,42,SY,1573664925,38,35.3,37.18,65.32,8.72
15,rikitea,100,PF,1573664925,78,-23.12,-134.97,71.74,24.36
16,talara,13,PE,1573664925,100,-4.58,-81.27,62.6,19.46
17,ushuaia,20,AR,1573664926,54,-54.81,-68.31,59,8.05
18,east london,40,ZA,1573664840,88,-33.02,27.91,66.2,13.87
19,mys shmidta,,,,,,,,
20,puerto ayora,75,EC,1573664926,69,-0.74,-90.35,75.2,4.7
21,arraial do cabo,40,BR,1573664926,69,-22.97,-42.02,78.8,20.8
22,soure,40,PT,1573664927,72,40.06,-8.63,60.8,12.75
23,honiton,40,GB,1573664927,93,50.8,-3.19,46,11.41
24,hobart,40,AU,1573664838,57,-42.88,147.33,52,10.29
25,sentyabrskiy,,,,,,,,
26,coahuayana,47,MX,1573664927,60,18.62,-100.35,78.75,2.35
27,nanortalik,100,GL,1573664927,70,60.14,-45.24,33.46,18.41
28,margate,40,AU,1573664927,57,-43.03,147.26,52,10.29
29,attawapiskat,,,,,,,,
30,hithadhoo,76,MV,1573664928,80,-0.6,73.08,82.54,15.01
31,cherskiy,100,RU,1573664928,95,68.75,161.3,13.33,0.56
32,bengkulu,,,,,,,,
33,denpasar,40,ID,1573664931,94,-8.65,115.22,80.6,2.24
34,christchurch,76,NZ,1573664931,93,-43.53,172.64,52,8.05
35,souillac,98,FR,1573664939,81,45.6,-0.6,51.01,13.87
36,vaini,4,IN,1573664940,82,15.34,74.49,67.3,6.44
37,atuona,25,PF,1573664940,76,-9.8,-139.03,79.81,17.72
38,korla,,,,,,,,
39,vestmannaeyjar,14,IS,1573664940,64,63.44,-20.27,35.6,3.36
40,nizhneyansk,,,,,,,,
41,sitka,11,US,1573664940,45,37.17,-99.65,45,8.63
42,waingapu,82,ID,1573664940,72,-9.65,120.26,82.67,3.96
43,acapulco,75,MX,1573664941,62,16.86,-99.88,84.2,6.93
44,coquimbo,75,CL,1573664941,72,-29.95,-71.34,62.6,9.17
45,hilo,1,US,1573664941,68,19.71,-155.08,71.6,6.93
46,hermanus,0,ZA,1573664941,75,-34.42,19.24,70,10
47,burns lake,100,CA,1573664941,91,54.23,-125.76,35.17,1.99
48,bukama,99,CD,1573664942,83,-9.2,25.85,74.28,1.05
49,jeremoabo,77,BR,1573664942,23,-10.08,-38.34,93.79,11.61
50,albany,20,US,1573664942,49,42.65,-73.75,27,10.29
51,butaritari,100,KI,1573664942,74,3.07,172.79,84.25,10.92
52,namibe,53,AO,1573664942,80,-15.19,12.15,73.56,9.89
53,pevek,83,RU,1573664942,81,69.7,170.27,21.6,7.16
54,talnakh,0,RU,1573664943,75,69.49,88.39,-13.01,4.47
55,bluff,22,AU,1573664943,35,-23.58,149.07,69.26,7.2
56,punta arenas,75,CL,1573664943,71,-53.16,-70.91,55.4,10.29
57,ouango,94,CD,1573664943,89,4.31,22.55,73.29,1.97
58,georgetown,75,GY,1573664943,66,6.8,-58.16,89.6,9.17
59,thompson,90,CA,1573664944,78,55.74,-97.86,10.4,8.05
60,lasa,20,CY,1573664944,38,34.92,32.53,75.2,4.7
61,saldanha,50,PT,1573664944,75,41.42,-6.55,48.83,11.18
62,cabo san lucas,5,MX,1573664944,61,22.89,-109.91,82,5.82
63,khandyga,100,RU,1573664944,98,62.65,135.58,-19.92,3
64,upernavik,87,GL,1573664941,59,72.79,-56.15,21.58,7.36
65,kiruna,90,SE,1573664944,100,67.86,20.23,23,5.1
66,touros,40,BR,1573664945,45,-5.2,-35.46,87.8,16.11
67,chokurdakh,92,RU,1573664945,96,70.62,147.9,3.81,1.54
68,ugoofaaru,99,MV,1573664945,76,5.67,73,84.02,13.87
69,amderma,,,,,,,,
70,marcona,,,,,,,,
71,kelvington,22,CA,1573664945,93,52.16,-103.52,6.55,5.53
72,say,97,NE,1573664945,10,13.1,2.36,95,6.93
73,macau,0,BR,1573664946,69,-5.11,-36.64,82.29,31.83
74,aklavik,40,CA,1573664946,77,68.22,-135.01,1.4,13.87
75,tuktoyaktuk,90,CA,1573664946,70,69.44,-133.03,-4.01,14.99
76,busselton,1,AU,1573664946,37,-33.64,115.35,68,8.48
77,kavieng,100,PG,1573664946,71,-2.57,150.8,82.83,3.2
78,barrow,72,AR,1573664946,54,-38.31,-60.23,74.07,11.74
79,taua,79,BR,1573664946,42,-3.62,-49.62,93.78,2.08
80,grindavik,6,IS,1573664947,64,63.84,-22.43,35.6,5.82
81,jamestown,15,AU,1573664947,96,-33.21,138.6,43.29,3.33
82,rondonopolis,100,BR,1573664947,71,-16.46,-54.64,80.6,3.8
83,ahualulco,90,MX,1573664947,100,22.4,-101.17,51.8,3.36
84,san carlos de bariloche,40,AR,1573664947,36,-41.13,-71.31,66.99,25.28
85,bubaque,0,GW,1573664947,71,11.28,-15.83,83.7,9.98
86,ayios kirikos,,,,,,,,
87,tautira,20,PF,1573664948,69,-17.73,-149.15,80.01,2.24
88,yenagoa,93,NG,1573664948,89,4.92,6.26,78.91,4.27
89,bethel,1,US,1573664827,72,60.79,-161.76,21.2,24.16
90,chake chake,2,TZ,1573664948,77,-5.25,39.77,81.59,10.92
91,zeya,7,RU,1573664948,95,53.74,127.27,-19.47,5.28
92,mehriz,0,IR,1573664948,11,31.58,54.44,50,4.7
93,lompoc,90,US,1573664948,93,34.64,-120.46,50,3.36
94,taolanaro,,,,,,,,
95,acajutla,9,SV,1573664882,54,13.59,-89.83,82.4,2.24
96,kodiak,90,US,1573664949,54,39.95,-94.76,34,10.29
97,vaitupu,,,,,,,,
98,anito,99,PH,1573664949,84,12.45,125.29,81.86,15.84
99,tura,100,RU,1573664949,98,64.27,100.22,-21.32,4.07
100,ponta do sol,88,BR,1573664950,69,-20.63,-46,77.59,8.1
101,nishihara,75,JP,1573664950,64,35.74,139.53,69.01,18.34
102,saint-philippe,47,CA,1573664950,52,45.36,-73.48,19.4,6.93
103,husavik,51,CA,1573664950,78,50.56,-96.99,19.99,11.99
104,katima mulilo,73,NA,1573664950,51,-17.5,24.28,82.4,5.82
105,asau,,,,,,,,
106,tidore,,,,,,,,
107,yuzhno-yeniseyskiy,,,,,,,,
108,castro,75,CL,1573664951,52,-42.48,-73.76,64.4,12.75
109,hirara,100,JP,1573664951,72,24.8,125.28,72.93,27.11
110,akyab,,,,,,,,
111,hambantota,82,LK,1573664951,78,6.12,81.12,81.16,11.61
112,kruisfontein,71,ZA,1573664951,89,-34,24.73,58.59,20.67
113,saint anthony,1,US,1573664952,47,43.97,-111.68,37.4,3.36
114,aitape,10,PG,1573664952,72,-3.15,142.36,81.95,3.13
115,kaitangata,100,NZ,1573664952,97,-46.28,169.85,45,4
116,san jose,40,HN,1573664952,51,14.25,-87.96,82.4,16.11
117,whyalla,90,AU,1573664952,62,-33.04,137.58,57.2,11.41
118,qaanaaq,100,GL,1573664952,90,77.48,-69.36,20.82,10.18
119,northam,0,AU,1573664952,33,-31.65,116.67,77,10.29
120,puerto narino,75,CO,1573664952,88,-3.77,-70.38,80.6,3.36
121,nowy sacz,75,PL,1573664953,76,49.62,20.7,60.01,2.24
122,manta,100,RO,1573664953,80,45.1,24.1,57.47,10.71
123,hirado,90,JP,1573664953,87,33.32,129.49,60.8,26.4
124,krasnokamensk,7,RU,1573664953,57,50.1,118.04,-0.46,5.59
125,rabo de peixe,20,PT,1573664953,63,37.8,-25.58,66.2,17.22
126,galesong,75,ID,1573664953,100,-5.32,119.37,75.2,1.12
127,cidreira,100,BR,1573664953,82,-30.17,-50.22,71.44,30.33
128,lulea,90,SE,1573664893,100,65.58,22.15,35.6,6.93
129,provideniya,100,RU,1573664954,81,64.42,-173.23,22.48,21
130,jalu,0,LY,1573664954,30,29.03,21.55,63.97,12.59
131,fayaoue,78,NC,1573664954,64,-20.65,166.53,73.8,10.74
132,ajdabiya,0,LY,1573664954,56,30.75,20.22,64.96,10.69
133,portland,1,US,1573664954,41,43.66,-70.25,26.01,14.99
134,igrim,22,RU,1573664954,97,63.19,64.42,-8.9,2.93
135,toora-khem,99,RU,1573664955,93,52.47,96.11,12.33,3.36
136,nador,20,MA,1573664955,68,35.17,-2.93,66.2,20.8
137,buluang,75,PH,1573664955,78,10.47,123.98,80.6,5.82
138,bambous virieux,75,MU,1573664955,83,-20.34,57.76,77,8.05
139,saint george,40,GR,1573664955,93,39.45,22.34,60.8,5.82
140,emirdag,100,TR,1573664955,41,39.02,31.15,53.55,2.46
141,zhigansk,100,RU,1573664955,96,66.77,123.37,-22.15,10.11
142,chuy,87,UY,1573664955,75,-33.69,-53.46,78.85,2.82
143,lokosovo,0,RU,1573664956,94,61.13,74.84,-4.6,4.63
144,bafoulabe,0,ML,1573664956,12,13.81,-10.83,92.98,2.33
145,pangnirtung,75,CA,1573664956,85,66.15,-65.72,21.2,3.36
146,mangrol,57,IN,1573664956,48,25.33,76.51,75.83,3.78
147,linhares,93,BR,1573664857,83,-19.38,-40.06,77.49,10.67
148,port alfred,0,ZA,1573664956,90,-33.59,26.89,64.99,5.01
149,victoria,75,BN,1573664956,83,5.28,115.24,80.6,3.36
150,tongliao,0,CN,1573664956,33,43.61,122.27,12.07,7.65
151,barentsburg,,,,,,,,
152,cam ranh,75,VN,1573664957,94,11.92,109.15,77,8.05
153,saint-pierre,75,FR,1573664957,93,48.95,4.24,44.6,11.41
154,salalah,40,OM,1573664957,69,17.01,54.1,80.6,8.05
155,salinas,90,US,1573664957,87,36.67,-121.66,57,3.36
156,kilindoni,0,TZ,1573664957,76,-7.91,39.67,81.39,10.83
157,bredasdorp,23,ZA,1573664957,68,-34.53,20.04,66,10.29
158,tual,63,ID,1573664958,80,-5.67,132.75,79.84,11.01
159,avera,1,US,1573664958,35,33.19,-82.53,43,5.82
160,riyadh,90,SA,1573664958,46,24.63,46.72,69.8,5.82
161,san juan bautista,77,PY,1573664958,77,-26.67,-57.15,83.59,5.14
162,zermatt,20,CH,1573664958,36,46.02,7.75,48.2,6.93
163,saskylakh,100,RU,1573664958,97,71.97,114.09,-14.08,11.83
164,mananjary,100,MG,1573664958,84,-19.16,46.8,65.03,1.63
165,garmsar,0,IR,1573664958,22,35.22,52.34,55.45,2.59
166,belushya guba,,,,,,,,
167,badamdar,75,AZ,1573664959,71,40.34,49.81,57.2,11.41
168,maracacume,99,BR,1573664959,47,-2.04,-45.96,92.39,5.06
169,kapaa,20,US,1573664959,94,22.08,-159.32,71.6,8.05
170,airai,0,TL,1573664959,55,-8.93,125.41,68.02,3.02
171,buraydah,75,SA,1573664959,88,26.33,43.97,66.2,3.36
172,nouadhibou,81,MR,1573664959,64,20.93,-17.03,73.4,14.99
173,bambanglipuro,94,ID,1573664960,90,-7.95,110.28,76.37,4.59
174,korop,51,UA,1573664960,83,51.57,32.95,45.88,14.27
175,lebu,28,ET,1573664960,71,8.96,38.73,53.78,4.47
176,kieta,100,PG,1573664960,79,-6.22,155.63,80.02,5.79
177,port-gentil,40,GA,1573664960,74,-0.72,8.78,86,10.29
178,tasiilaq,40,GL,1573664960,74,65.61,-37.64,33.8,2.24
179,san cristobal,77,HN,1573664960,61,14.68,-86.92,78.15,5.64
180,aksu,90,KZ,1573664961,74,52.04,76.93,30.2,4.47
181,imeni stepana razina,16,RU,1573664961,89,54.89,44.3,32.43,1.52
182,mar del plata,33,AR,1573664961,24,-46.43,-67.52,74.8,19.28
183,beyla,68,GN,1573664961,95,8.69,-8.65,69.01,2.89
184,andra,8,RU,1573664961,96,62.52,65.89,-9.08,2.39
185,clyde river,90,CA,1573664961,92,70.47,-68.59,17.6,23.04
186,mount gambier,90,AU,1573664962,93,-37.83,140.78,51.8,6.93
187,iqaluit,75,CA,1573664962,85,63.75,-68.52,14,9.17
188,faanui,5,PF,1573664962,78,-16.48,-151.75,78.85,20.11
189,constitucion,90,MX,1573664962,81,23.99,-104.67,50,10.29
190,maniitsoq,63,GL,1573664962,72,65.42,-52.9,30.15,18.1
191,torbay,90,CA,1573664962,88,47.66,-52.73,62.6,19.46
192,tiznit,100,MA,1573664962,44,29.7,-9.73,65.21,3.29
193,port lincoln,77,AU,1573664962,76,-34.72,135.86,53.64,6.06
194,taksimo,98,RU,1573664963,93,56.36,114.84,-22.63,0.31
195,lavrentiya,100,RU,1573664963,73,65.58,-170.99,24.91,30.51
196,ouadda,82,CF,1573664963,45,8.07,22.4,73.15,2.51
197,dekar,64,BW,1573664963,35,-21.53,21.93,83.01,6.76
198,leeton,3,AU,1573664963,54,-34.55,146.4,55.4,4.7
199,zolotinka,,,,,,,,
200,sao joao del rei,75,BR,1573664963,73,-21.14,-44.26,71.6,5.82
201,bereda,75,ES,1573664963,81,43.27,-7.54,55.99,9.17
202,kitui,54,KE,1573664964,93,-1.37,38.02,68.7,5.7
203,siyabuswa,82,ZA,1573664964,79,-25.11,29.06,66.51,21.72
204,marzuq,2,YE,1573664964,58,14.4,46.47,68.7,3.27
205,bingol,0,TR,1573664964,26,38.88,40.49,42.93,1.3
206,alegrete,100,BR,1573664964,92,-29.79,-55.79,71.76,4.63
207,qandala,18,SO,1573664964,74,11.47,49.87,78.21,6.15
208,qaqortoq,75,GL,1573664964,58,60.72,-46.03,30.2,11.65
209,nome,1,US,1573664965,56,30.04,-94.42,42.01,4.7
210,kailua,20,US,1573664965,83,21.39,-157.74,75.2,3.36
211,vardo,1,US,1573664965,37,39.62,-77.74,34,5.82
212,chapais,1,CA,1573664965,78,49.78,-74.86,12.2,6.93
213,berlevag,75,NO,1573664944,86,70.86,29.09,28.4,24.16
214,yumen,0,CN,1573664965,31,40.29,97.04,28.53,13.69
215,lagoa,20,PT,1573664965,72,37.14,-8.45,66.99,13.87
216,port arthur,1,US,1573664966,55,29.9,-93.93,41,4.7
217,saleaula,,,,,,,,
218,beyneu,97,KZ,1573664966,84,45.32,55.19,47.98,0.51
219,nichinan,51,JP,1573664966,88,31.65,131.31,62.01,11.61
220,escarcega,71,MX,1573664966,60,18.61,-90.75,84.45,2.75
221,grand river south east,,,,,,,,
222,roald,75,NO,1573664966,93,62.58,6.12,35.6,4.7
223,camacha,75,PT,1573664967,77,33.08,-16.33,71.6,12.75
224,mounana,75,GA,1573664967,88,-1.38,13.16,77,4.7
225,khatanga,73,RU,1573664967,84,71.98,102.47,-28.16,2.89
226,tinqueux,90,FR,1573664967,81,49.25,3.99,44.6,8.05
227,cayenne,100,GF,1573664967,62,4.94,-52.33,89.6,10.29
228,kudahuvadhoo,100,MV,1573664967,76,2.67,72.89,83.28,15.23
229,meulaboh,100,ID,1573664967,72,4.14,96.13,81.82,1.5
230,sakakah,,,,,,,,
231,moosomin,24,CA,1573664968,87,50.14,-101.67,10.98,10.65
232,weligama,93,LK,1573664968,89,5.97,80.42,74.52,5.44
233,bowen,11,AU,1573664968,93,-20.01,148.25,71.01,1.12
234,illoqqortoormiut,,,,,,,,
235,tiksi,96,RU,1573664968,97,71.64,128.87,-6.87,2.75
236,varvoru,100,RO,1573664968,87,44.23,23.63,60.01,11.41
237,sungairaya,99,ID,1573664968,94,0.7,108.9,75.09,4.21
238,sontra,75,DE,1573664969,86,51.07,9.94,42.01,10.29
239,ahuimanu,20,US,1573664969,83,21.44,-157.84,75.2,3.36
240,mercedes,97,UY,1573664969,70,-33.25,-58.03,80.01,8.99
241,san ignacio,97,PE,1573664969,56,-5.15,-79,81.28,3.94
242,sao joao da barra,90,BR,1573664969,73,-21.64,-41.05,80.6,20.8
243,mon,7,IN,1573664970,96,26.73,95.03,58.17,3.69
244,bonthe,48,SL,1573664970,73,7.53,-12.5,83.01,6.35
245,quelimane,67,MZ,1573664970,81,-17.88,36.89,78.84,9.19
246,nabire,100,ID,1573664970,98,-3.36,135.5,72.97,2.17
247,san jeronimo,40,PE,1573664970,100,-13.65,-73.37,37.4,13.87
248,esperance,0,AU,1573664970,62,-33.86,121.89,59,10.29
249,beloha,66,MG,1573664970,85,-25.17,45.06,71.15,18.68
250,muros,75,ES,1573664971,87,42.77,-9.06,57.99,8.05
251,axim,83,GH,1573664971,83,4.87,-2.24,79.32,3.47
252,semey,77,KZ,1573664971,85,50.41,80.25,24.8,6.71
253,makakilo city,1,US,1573664849,83,21.35,-158.09,75.2,4.7
254,tevaitoa,0,PF,1573664971,79,-16.78,-151.5,78.35,19.42
255,silver city,1,US,1573664971,52,32.77,-108.28,57,3.36
256,berezovka,45,RU,1573664971,91,55.71,42.61,32.31,3.91
257,sisimiut,29,GL,1573664972,66,66.94,-53.67,20.77,11.65
258,ostrovnoy,100,RU,1573664972,93,68.05,39.51,20.82,18.28
259,bathsheba,40,BB,1573664972,70,13.22,-59.52,86,12.75
260,port hardy,90,CA,1573664972,100,50.7,-127.42,44.6,4.7
261,samana,75,EC,1573664972,74,0.12,-76.97,82.4,2.24
262,sao miguel do oeste,,,,,,,,
263,guerrero negro,0,MX,1573664972,42,27.97,-114.04,77.38,5.84
264,komsomolskiy,0,RU,1573664973,84,67.55,63.78,-6.47,2.8
265,havre-saint-pierre,90,CA,1573664973,62,50.23,-63.6,23,8.05
266,dongkan,0,CN,1573664973,48,34,119.83,43.99,3.2
267,kupang,14,ID,1573664973,71,-10.16,123.6,81.39,6.76
268,ginda,100,IN,1573664973,29,30.69,78.49,53.85,4.38
269,taunggyi,0,MM,1573664973,89,20.78,97.03,61.93,0.38
270,asfi,,,,,,,,
271,samarai,100,PG,1573664974,95,-10.62,150.67,73.96,1.45
272,chilca,75,PE,1573664974,42,-13.22,-72.34,64.4,4.7
273,kirando,100,TZ,1573664974,72,-7.37,30.62,80.35,16.2
274,tabory,100,PL,1573664974,93,53.89,19.53,46.99,3.02
275,xichang,93,CN,1573664974,88,27.88,102.25,39.63,2.21
276,baringo,96,KE,1573664974,61,0.47,35.97,75.18,2.53
277,pabellon de arteaga,,,,,,,,
278,longyearbyen,40,NO,1573664975,63,78.22,15.63,30.2,18.34
279,laguna,40,BZ,1573664975,62,16.17,-88.94,86,4.7
280,homer,90,US,1573664975,93,59.64,-151.54,42.8,6.93
281,seybaplaya,75,MX,1573664975,78,19.65,-90.67,80.6,18.34
282,along,29,IN,1573664976,94,28.17,94.8,64.58,3.22
283,sechura,65,PE,1573664976,94,-5.56,-80.82,64.72,13.11
284,linxia,0,CN,1573664976,16,35.6,103.21,31.93,9.98
285,half moon bay,75,US,1573664976,82,37.46,-122.43,61,3.04
286,alfenas,75,BR,1573664934,75,-21.43,-45.95,76.66,5.7
287,geraldton,90,CA,1573664976,78,49.72,-86.95,17.6,9.17
288,sahrak,,,,,,,,
289,grand island,40,US,1573664976,51,40.92,-98.34,45,9.17
290,gamba,0,CN,1573664977,40,28.28,88.52,28.83,1.97
291,tumannyy,,,,,,,,
292,pisco,75,PE,1573664977,30,-13.71,-76.2,71.6,6.93
293,ulladulla,24,AU,1573664977,57,-35.36,150.48,60.8,9.17
294,kendari,19,ID,1573664977,93,-3.99,122.52,71.2,2.04
295,codrington,90,AU,1573664977,72,-28.95,153.24,66,1.32
296,xuddur,58,SO,1573664977,57,4.12,43.89,77.95,8.39
297,lolua,,,,,,,,
298,kloulklubed,75,PW,1573664978,94,7.04,134.26,77,6.29
299,umzimvubu,,,,,,,,
300,veseloyarsk,86,RU,1573664978,86,51.29,81.11,23.74,9.89
301,siavonga,100,ZW,1573664978,77,-16.54,28.71,76.78,3.47
302,warqla,,,,,,,,
303,huarmey,47,PE,1573664978,51,-10.07,-78.15,78.91,12.71
304,belmonte,7,PT,1573664978,91,40.36,-7.35,62.01,14
305,beringovskiy,100,RU,1573664978,86,63.05,179.32,32.63,11.25
306,longlac,,,,,,,,
307,faya,20,SA,1573664979,77,18.39,42.45,62.6,9.17
308,labytnangi,0,RU,1573664979,86,66.66,66.39,-10.45,6.46
309,sibolga,99,ID,1573664979,97,1.74,98.78,71.83,1.77
310,waipawa,100,NZ,1573664979,66,-39.94,176.59,55.99,4.74
311,atherton,89,AU,1573664851,88,-17.27,145.48,69.8,2.59
312,betioky,,,,,,,,
313,bandarbeyla,51,SO,1573664979,78,9.49,50.81,80.24,17.56
314,klamath falls,1,US,1573664864,37,42.22,-121.78,39.99,2.98
315,whitehorse,90,CA,1573664938,85,60.72,-135.06,15.8,4.7
316,goure,100,NE,1573664980,13,13.98,10.27,86,5.01
317,maningrida,9,AU,1573664980,85,-12.05,134.23,75.49,0.07
318,ardakan,0,IR,1573664980,11,32.31,54.02,50,4.7
319,kemi,90,FI,1573664980,100,65.74,24.56,33.8,5.82
320,mombetsu,100,JP,1573664980,79,44.35,143.35,49.1,32.57
321,ulagan,79,RU,1573664980,75,50.63,87.96,9.86,4.94
322,taoudenni,0,ML,1573664981,20,22.68,-3.98,77.2,8.77
323,ereymentau,73,KZ,1573664981,80,51.62,73.1,20.89,8.03
324,uwajima,100,JP,1573664981,76,33.22,132.57,63.63,11.52
325,urzhum,98,RU,1573664981,80,57.11,50,32.23,7.43
326,hami,0,CN,1573664981,58,42.84,93.51,31.15,1.77
327,ust-maya,100,RU,1573664981,97,60.42,134.54,-12.63,5.06
328,port augusta,90,AU,1573664981,62,-32.49,137.76,57.2,11.41
329,carutapera,42,BR,1573664982,76,-1.2,-46.02,82.31,16.58
330,the valley,40,AI,1573664982,62,18.22,-63.06,87.8,9.17
331,narsaq,75,GL,1573664982,58,60.91,-46.05,30.2,7.27
332,monte alegre,92,BR,1573664982,46,-2,-54.07,91.85,2.93
333,toliary,,,,,,,,
334,la palma,100,CO,1573664982,67,5.36,-74.39,77.16,2.39
335,polovinnoye,99,RU,1573664983,86,54.79,65.99,22.66,12.53
336,aljezur,29,PT,1573664983,66,37.31,-8.8,66.99,15.84
337,sept-iles,75,CA,1573664983,57,50.2,-66.38,23,16.11
338,samusu,,,,,,,,
339,ossora,35,RU,1573664983,76,59.24,163.07,27.59,8.43
340,nuuk,75,GL,1573664983,59,64.17,-51.74,33.8,10.29
341,te anau,52,NZ,1573664983,89,-45.41,167.72,40.73,3.67
342,phan rang,,,,,,,,
343,norman wells,40,CA,1573664984,76,65.28,-126.83,-5.81,10.29
344,nikolskoye,75,RU,1573664984,81,59.7,30.79,44.6,8.95
345,santimbru,75,RO,1573664984,63,46.13,23.65,64.4,21.92
346,vagur,91,FO,1573664984,63,61.47,-6.81,41.74,15.35
347,fukue,75,JP,1573664984,82,35.03,136.69,60.8,6.93
348,ketchikan,90,US,1573664984,81,55.34,-131.65,51.8,9.17
349,tabarqah,,,,,,,,
350,fare,13,PF,1573664985,79,-16.7,-151.02,78.6,20.04
351,saint-lo,81,FR,1573664985,75,49.12,-1.09,46,12.75
352,college,90,US,1573664985,55,64.86,-147.8,8.6,13.87
353,namatanai,100,PG,1573664985,69,-3.66,152.44,82.04,2.21
354,shelburne,75,CA,1573664985,62,44.08,-80.2,27,8.14
355,chico,90,US,1573664700,66,39.73,-121.84,64.99,3.69
356,ormara,0,PK,1573664985,54,25.21,64.64,78.33,8.23
357,sarangani,0,PH,1573664986,78,5.4,125.46,82.72,12.77
358,pavlovsk,75,RU,1573664986,92,53.31,82.99,24.8,11.18
359,nevsehir,58,TR,1573664986,37,38.62,34.71,50,3.36
360,muroto,100,JP,1573664986,87,33.37,134.14,60.35,6.82
361,kathu,0,ZA,1573664986,13,-27.7,23.05,79,1.01
362,ahome,5,MX,1573664986,69,25.92,-109.18,79,5.82
363,contai,0,IN,1573664987,70,21.78,87.75,71.31,4.21
364,bermejo,19,AR,1573664987,38,-22.73,-64.34,90.39,4.43
365,novyy karachay,0,RU,1573664987,56,43.82,41.9,42.8,3.49
366,ust-tsilma,46,RU,1573664987,93,65.44,52.15,1.35,4.05
367,pokaran,86,IN,1573664987,58,26.93,71.92,75.06,5.28
368,tashtyp,100,RU,1573664987,96,52.8,89.89,19.22,5.86
369,severo-kurilsk,77,RU,1573664987,85,50.68,156.12,29.16,9.93
370,mackenzie,90,CA,1573664988,93,55.34,-123.09,35.6,9.17
371,broome,81,GB,1573664988,86,52.47,1.45,44.01,3.36
372,hualmay,25,PE,1573664988,59,-11.1,-77.61,74.17,10.56
373,keta,20,GH,1573664988,74,5.92,0.99,86,8.05
374,celarevo,100,RS,1573664988,63,45.27,19.53,60.8,13.87
375,alugan,100,PH,1573664988,88,12.22,125.48,77.27,9.42
376,hay river,90,CA,1573664988,85,60.82,-115.79,17.6,8.05
377,asyut,0,EG,1573664988,37,27.18,31.19,86,11.41
378,satis,41,RU,1573664989,90,54.92,43.23,32.65,3.58
379,pulsano,40,IT,1573664989,72,40.38,17.36,66.2,9.17
380,omboue,80,GA,1573664989,89,-1.57,9.26,76.57,2.57
381,sabang,100,PH,1573664989,90,13.8,121.11,75,1.81
382,vostok,100,RU,1573664989,95,46.45,135.83,9.16,12.75
383,klaksvik,20,FO,1573664989,80,62.23,-6.59,33.8,4.7
384,shurugwi,100,ZW,1573664989,94,-19.67,30,63.86,6.15
385,sao filipe,42,CV,1573664989,79,14.9,-24.5,73.72,14.16
386,palabuhanratu,,,,,,,,
387,padang,100,ID,1573664990,95,-0.92,100.36,68.09,3.49
388,puerto cortes,,,,,,,,
389,buchanan,75,LR,1573664990,94,5.88,-10.05,75.2,4.74
390,erzin,40,TR,1573664990,39,36.95,36.2,73,4.7
391,chagda,,,,,,,,
392,kajiado,75,KE,1573664991,72,-1.85,36.79,68,10.29
393,luanda,75,AO,1573664991,83,-8.83,13.24,80.6,6.93
394,vallenar,0,CL,1573664991,33,-28.58,-70.76,76.73,11.7
395,hede,90,SE,1573664991,100,60.45,15.49,35.01,0.43
396,newport,99,GB,1573664991,86,51.59,-3,46,11.41
397,goreloye,49,RU,1573664991,90,52.92,41.5,34.14,4.97
398,meadow lake,90,CA,1573664991,85,54.13,-108.44,12.2,4.7
399,arroyo,75,BO,1573664992,62,-11.08,-66.08,86,6.93
400,kuala krai,,,,,,,,
401,odesskoye,100,RU,1573664992,83,54.21,72.97,22.95,13.35
402,mahebourg,75,MU,1573664992,83,-20.41,57.7,77,8.05
403,nakanojo,26,JP,1573664992,88,36.61,138.81,51.01,1.99
404,luderitz,2,NA,1573664992,60,-26.65,15.16,73.4,21.92
405,port elizabeth,1,US,1573664992,37,39.31,-74.98,36,14.99
406,santa barbara,75,US,1573664906,87,34.42,-119.7,57.99,5.5
407,aborlan,100,PH,1573664993,93,9.44,118.55,72.07,3.44
408,asasa,19,ET,1573664993,89,7.1,39.2,52.52,6.98
409,luga,95,RU,1573664993,81,58.74,29.85,46.26,11.88
410,sivaki,0,RU,1573664993,87,52.63,126.75,-11.48,8.99
411,dunedin,100,NZ,1573664993,97,-45.87,170.5,46.99,1.01
412,cerrito,75,CO,1573664993,88,6.84,-72.7,73.4,6.93
413,huanren,3,CN,1573664993,57,41.26,125.37,13.14,8.75
414,katsuura,75,JP,1573664994,82,33.93,134.5,62.01,8.05
415,sukhodol,78,RU,1573664994,85,53.9,51.22,33.51,8.46
416,banda aceh,72,ID,1573664994,92,5.56,95.32,74.62,1.83
417,svetlaya,100,RU,1573664994,62,46.54,138.33,37.45,19.46
418,sale,89,AU,1573664994,81,-38.11,147.06,55.99,5.99
419,huron,90,US,1573664994,64,44.36,-98.21,37.4,13.87
420,sambava,49,MG,1573664994,93,-14.27,50.17,73.94,1.79
421,wana,100,PK,1573664995,61,32.31,69.59,43.93,0.58
422,belousovka,100,KZ,1573664995,73,50.13,82.52,24.8,8.95
423,san rafael,1,AR,1573664995,28,-34.61,-68.33,83.52,10.07
424,isangel,62,VU,1573664995,76,-19.55,169.27,70.95,10.58
425,eskasem,,,,,,,,
426,lewiston,1,US,1573664869,57,44.1,-70.21,26.01,13.87
427,tignere,69,CM,1573664995,60,7.37,12.65,74.89,0.47
428,kukushtan,75,RU,1573664996,100,57.65,56.5,23,6.71
429,borlange,,,,,,,,
430,la asuncion,60,AR,1573664996,85,-26.05,-65.39,65.91,4.56
431,guia de isora,20,ES,1573664996,50,28.21,-16.78,75.2,24.16
432,phalombe,89,MW,1573664996,57,-15.81,35.65,77.04,5.41
433,atar,0,MR,1573664996,8,20.52,-13.05,82.65,7.94
434,kuhestan,,,,,,,,
435,tomatlan,100,MX,1573664996,84,19.93,-105.25,73.47,1.54
436,darovskoy,91,RU,1573664997,90,58.77,47.96,29.71,2.21
437,preobrazheniye,51,RU,1573664997,63,42.9,133.91,22.53,10.78
438,kosh,,,,,,,,
439,registro,89,BR,1573664997,72,-24.5,-47.84,78.96,6.22
440,itamaraca,20,BR,1573664997,62,-7.75,-34.83,87.8,16.11
441,flin flon,75,CA,1573664997,72,54.77,-101.88,14,5.82
442,banyo,79,CM,1573664997,54,6.75,11.81,77.41,3.24
443,vila franca do campo,20,PT,1573664997,63,37.72,-25.43,66.2,17.22
444,itoman,75,JP,1573664998,69,26.12,127.67,73.4,12.75
445,sorland,75,NO,1573664998,70,67.67,12.69,42.8,13.87
446,adre,91,TD,1573664998,18,13.47,22.2,78.04,5.14
447,bilma,100,NE,1573664998,14,18.69,12.92,76.01,9.37
448,nantucket,1,US,1573664760,36,41.28,-70.1,32,14.99
449,carnarvon,1,ZA,1573664998,42,-30.97,22.13,64.53,19.82
450,lima,90,PE,1573664715,77,-12.06,-77.04,68,11.41
451,mana,87,NG,1573664998,17,13.03,5.27,84.99,5.88
452,kharovsk,99,RU,1573664999,81,59.95,40.21,34.92,10.36
453,zambezi,100,ZM,1573664999,77,-13.55,23.12,72.09,3.38
454,leningradskiy,100,RU,1573664999,77,69.38,178.42,24.53,23.33
455,bourail,34,NC,1573664999,74,-21.57,165.5,66.85,1.9
456,saint-joseph,100,FR,1573664999,76,43.56,6.97,55.4,2.24
457,port hedland,7,AU,1573664999,48,-20.31,118.58,84.2,14.99
458,urdzhar,,,,,,,,
459,jinxiang,0,CN,1573664999,20,35.07,116.31,43.36,6.49
460,surt,0,LY,1573665000,35,31.21,16.59,62.22,7.58
461,campbell river,90,CA,1573665000,100,50.02,-125.24,46.99,1.36
462,dhidhdhoo,62,MV,1573664857,76,6.88,73.1,83.82,13.56
463,loubomo,,,,,,,,
464,fontenay-le-comte,100,FR,1573665000,76,46.47,-0.81,50,20.8
465,nuevo progreso,90,US,1573665000,70,26.05,-97.95,46.99,4.7
466,storsteinnes,20,NO,1573665000,92,69.24,19.23,32,17.22
467,groningen,91,NL,1573664998,87,53.22,6.57,44.01,9.17
468,port keats,2,AU,1573665001,81,-14.25,129.55,80.67,5.73
469,waddan,0,LY,1573665001,37,29.16,16.14,62.64,5.28
470,sorvag,,,,,,,,
471,hofn,9,IS,1573665001,55,64.25,-15.21,35.6,10.29
472,pacific grove,90,US,1573665001,87,36.62,-121.92,52,3.36
473,carson city,1,US,1573665001,42,39.16,-119.77,54,2.46
474,nakhon thai,22,TH,1573665002,97,17.1,100.84,66.92,5.17
475,yining,49,CN,1573665002,48,29.04,114.56,46.99,1.57
476,alyangula,0,AU,1573665002,88,-13.85,136.42,75.2,3.47
477,doctor pedro p. pena,,,,,,,,
478,karakulino,95,RU,1573665003,86,56.01,53.71,31.87,11.77
479,sukumo,100,JP,1573665003,76,32.94,132.72,63.63,11.52
480,paramonga,69,PE,1573665003,88,-10.68,-77.82,64.67,8.9
481,grevena,40,GR,1573665003,81,40.09,21.43,55.4,3.49
482,rupert,1,US,1573665003,48,42.62,-113.68,45,5.23
483,manaus,75,BR,1573665004,79,-3.13,-59.98,84.2,3.36
484,coihaique,40,CL,1573665004,42,-45.58,-72.07,62.6,6.93
485,iracoubo,73,GF,1573665004,77,5.48,-53.21,82.99,12.48
486,marrakesh,86,MA,1573665004,33,31.63,-7.99,73.4,8.05
487,kantang,91,TH,1573665004,91,7.42,99.52,74.93,3.42
488,paamiut,68,GL,1573665004,56,61.99,-49.67,29.34,10.38
489,raymond,75,CA,1573665004,69,49.47,-112.67,39.99,11.41
490,melnikovo,11,RU,1573665005,84,56.55,84.09,5,4.27
491,port blair,0,IN,1573665005,71,11.67,92.75,82.53,7.49
492,soyo,20,AO,1573665005,74,-6.13,12.37,86,11.41
493,kraslava,83,LV,1573665005,77,55.9,27.16,51.13,16.15
494,havelock,20,US,1573665005,48,34.88,-76.9,43,19.46
495,mogadishu,82,SO,1573665005,79,2.04,45.34,82.06,18.3
496,arani,40,IN,1573665005,78,13.33,80.08,82.4,6.93
497,kozluk,40,TR,1573665005,71,38.17,41.5,50,4.7
498,wulanhaote,,,,,,,,
499,basarabeasca,61,UA,1573665006,81,46.33,28.97,53.6,10.29
500,deputatskiy,99,RU,1573665006,99,69.3,139.9,-5.93,1.61
501,kodar,10,IN,1573665006,86,16.98,79.97,71.11,4.7
502,kahului,20,US,1573665006,72,20.89,-156.47,73.99,3.36
503,gidole,26,ET,1573665006,77,5.65,37.37,68.18,0.87
504,diapaga,54,BF,1573665006,19,12.07,1.79,86.41,7.27
505,port macquarie,90,AU,1573665007,93,-31.43,152.91,55,6.89
506,xining,0,CN,1573665007,19,36.62,101.77,26.91,5.32
507,vila velha,20,BR,1573665007,52,-3.71,-38.6,87.8,20.8
508,manaure,40,CO,1573665007,74,11.78,-72.45,86,6.93
509,maneromango,20,TZ,1573665007,74,-7.2,38.78,80.6,11.41
510,ilulissat,75,GL,1573665007,80,69.22,-51.1,30.2,3.36
511,maromitsa,99,RU,1573665007,95,59.87,48.01,26.37,2.68
512,noyabrsk,0,RU,1573664940,89,63.2,75.45,-9.71,12.57
513,vaasa,90,FI,1573665008,100,63.1,21.62,37.4,3.36
514,gorontalo,9,ID,1573665008,87,0.54,123.06,74.77,2.77
515,tilichiki,31,RU,1573665008,82,60.47,166.1,20.32,7
516,antofagasta,75,CL,1573665008,72,-23.65,-70.4,66.2,12.75
517,kungurtug,100,RU,1573665008,76,50.6,97.53,12.38,5.59
518,kamenka,62,MD,1573665008,80,48.03,28.7,51.01,1.99
519,oktyabrskoye,20,RU,1573665008,91,56.73,85.44,5,4.47
520,ballina,75,IE,1573665009,100,54.11,-9.15,41,5.82
521,san ramon,20,NI,1573665009,64,12.92,-85.84,73.4,18.34
522,shenjiamen,40,CN,1573665009,62,29.96,122.3,62.55,31.41
523,rafsanjan,0,IR,1573665009,10,30.4,55.99,47.46,3.98
524,mastung,66,PK,1573665009,56,29.8,66.85,47.91,2.42
525,ancud,75,CL,1573665009,52,-41.87,-73.83,64.4,12.75
526,road town,40,VG,1573665009,58,18.42,-64.62,87.8,8.05
527,vestmanna,20,FO,1573665009,80,62.16,-7.17,33.8,4.7
528,belaya gora,100,RU,1573665010,97,68.54,146.19,1.6,0.83
529,shrigonda,2,IN,1573665010,68,18.61,74.7,69.04,8.21
530,piacabucu,68,BR,1573665010,66,-10.41,-36.43,81.77,9.53
531,ekhabi,100,RU,1573665010,87,53.51,142.97,17.4,3.51
532,bongandanga,98,CD,1573665010,92,1.51,21.07,73.56,1.77
533,sinnamary,73,GF,1573665010,77,5.38,-52.96,82.99,12.48
534,lerwick,20,GB,1573665010,74,60.15,-1.15,35.6,10.29
535,scharding,75,AT,1573665010,93,48.45,13.44,37.4,8.05
536,akcakoca,99,TR,1573664857,39,41.09,31.12,64.74,3.36
537,goderich,100,CA,1573664751,90,43.74,-81.71,24.01,3
538,plettenberg bay,56,ZA,1573665011,87,-34.05,23.37,61.11,12.44
539,santa marta,75,CO,1573665011,79,11.24,-74.21,86,5.82
540,howick,95,ZA,1573665011,99,-29.48,30.22,64.99,3.94
541,pangkalanbuun,65,ID,1573665011,96,-2.68,111.62,74.66,0.54
542,harper,90,US,1573665011,47,30.3,-99.24,37.4,13.87
543,datong,0,CN,1573665012,53,40.09,113.3,27.75,8.28
544,sayat,0,TM,1573665012,93,38.78,63.88,44.6,4.7
545,dhamtari,0,IN,1573665012,68,20.71,81.55,71.6,4.7
546,eldikan,,,,,,,,
547,el retorno,91,CO,1573665012,77,2.33,-72.63,83.71,3.04
548,luxor,1,EG,1573665012,45,25.7,32.65,87.8,4.7
549,itarema,38,BR,1573665012,50,-2.92,-39.92,87.84,16.2
550,caravelas,8,BR,1573665013,56,-17.73,-39.27,84.74,13.33
551,mahajanga,20,MG,1573665013,79,-15.72,46.32,84.2,10.29
552,ponta delgada,20,PT,1573665013,63,37.73,-25.67,66.2,17.22
553,vanimo,32,PG,1573665013,78,-2.67,141.3,80.69,4.94
554,chumikan,86,RU,1573665013,72,54.72,135.31,1.42,12.3
555,huambo,99,AO,1573665013,93,-12.78,15.73,63.39,6.33
556,venezuela,69,CU,1573665013,66,21.74,-78.8,82.11,8.55
557,aksarka,0,RU,1573665013,82,66.56,67.8,-10.32,6.98
558,gonbad-e qabus,40,IR,1573665014,71,37.25,55.17,51.8,4.23
559,havoysund,75,NO,1573665014,74,71,24.66,30.2,14.99
560,fuerte olimpo,47,BR,1573665014,35,-21.04,-57.87,97.79,10.11
561,limbuhan,100,PH,1573665014,90,11.06,125.02,75.51,4.94
562,kandrian,41,PG,1573665014,95,-6.21,149.55,70.2,2.35
563,mananara,,,,,,,,
564,hamilton,40,CA,1573664786,79,43.26,-79.87,28.99,10.29
565,agua buena,0,MX,1573665015,42,29.88,-109.91,63.34,1.57
566,robertsport,21,LR,1573665015,71,6.75,-11.37,83.3,5.99
567,nakamura,75,JP,1573665015,82,35.17,136.87,60.8,6.93
568,wah,,,,,,,,
569,ijuin,95,JP,1573665015,88,31.62,130.4,62.01,8.1
570,stolin,59,BY,1573665015,65,51.89,26.85,55.26,15.97
571,dingle,100,PH,1573665015,87,11,122.67,73.4,4.16
572,villa carlos paz,40,AR,1573665016,42,-31.42,-64.5,89.01,8.05
573,nikko,83,JP,1573665016,80,36.75,139.62,51.01,4
574,serra talhada,28,BR,1573665016,18,-7.99,-38.29,96.93,11.63
575,halifax,75,CA,1573664735,63,44.65,-63.58,28.99,20.8
576,turukhansk,12,RU,1573665016,85,65.8,87.96,-20.87,2.89
577,selikhino,100,RU,1573665016,93,50.37,137.51,16.93,10.36
578,paranaiba,65,BR,1573665016,36,-19.68,-51.19,94.78,6.24
579,pyshma,100,RU,1573665016,82,56.95,63.25,16.41,9.15
580,emerald,20,AU,1573665017,19,-23.53,148.16,80.6,12.75
581,biltine,99,TD,1573665017,10,14.53,20.93,83.25,6.24
582,comodoro rivadavia,75,AR,1573665017,22,-45.87,-67.48,77,19.46
583,srednekolymsk,83,RU,1573665017,96,67.46,153.71,-0.01,3.22
584,tiarei,20,PF,1573665017,69,-17.53,-149.33,80.01,2.24
585,moerai,83,PF,1573665017,69,-22.43,-151.33,72.3,19.3
586,henties bay,0,NA,1573665017,88,-22.12,14.28,60.01,1.01
587,mount isa,0,AU,1573665018,10,-20.73,139.49,77,12.75
588,rundu,100,NA,1573665018,73,-17.91,19.77,71.6,8.05
589,la ronge,20,CA,1573665018,78,55.1,-105.3,10.4,4.7
590,uray,100,RU,1573665018,92,60.13,64.8,3.25,5.64
591,huilong,58,CN,1573665018,58,31.15,106.5,55.15,1.3
592,malumfashi,100,NG,1573665018,24,11.79,7.62,82.22,5.5
593,hobyo,100,SO,1573665018,75,5.35,48.53,79.86,13.85
594,dovers,4,VC,1573665018,71,12.88,-61.18,82.35,9.24
595,botshabelo,0,ZA,1573665019,13,-29.23,26.73,80.6,11.41
596,barbar,,,,,,,,
597,ravenna,40,IT,1573665019,66,44.42,12.2,53.6,0.87
598,thinadhoo,96,MV,1573665019,78,0.53,72.93,82.33,14.18
599,manadhoo,90,MV,1573665019,76,5.77,73.38,83.62,15.57
600,naze,75,NG,1573665019,74,5.43,7.07,84.2,6.93
601,broken hill,0,AU,1573665020,44,-31.97,141.45,59,8.05
602,tempio pausania,40,IT,1573665020,67,40.9,9.1,57.2,6.93
603,tokur,95,RU,1573665020,99,53.13,132.9,-10.22,2.44
604,rypefjord,40,NO,1573665020,74,70.63,23.67,33.8,21.92
605,fuxin,0,CN,1573665020,25,42.02,121.65,17.92,1.88
606,alice springs,0,AU,1573665020,21,-23.7,133.88,62.6,15.03
607,yerbogachen,49,RU,1573665021,97,61.28,108.01,-22.78,3.91
608,dwarka,40,IN,1573665021,60,28.58,77.04,69.8,4.03
609,sterling,1,US,1573664750,29,39,-77.4,36,6.93
610,stromness,90,CA,1573665021,73,42.87,-79.55,28.99,6.93
611,rocha,77,UY,1573665021,80,-34.48,-54.34,76.33,8.97
612,aketi,98,CD,1573665021,95,2.74,23.78,72.45,0.76
613,yar-sale,0,RU,1573665021,92,66.83,70.83,-8.04,7.74
614,sann,20,PK,1573665021,53,26.04,68.14,73.4,6.93
615,cordoba,3,AR,1573665003,27,-27.78,-67.24,87.87,14.61
616,stokmarknes,83,NO,1573665022,64,68.56,14.91,39.2,11.41
617,urulga,,,,,,,,
618,diebougou,30,BF,1573665022,25,10.97,-3.25,88.99,5.75
619,progreso,75,UY,1573665022,58,-34.68,-56.22,82.4,9.17
620,xuanhua,20,CN,1573665022,37,40.61,115.04,25.25,2.64
621,jerantut,100,MY,1573665022,96,3.94,102.37,74.1,1.77
622,grand gaube,75,MU,1573665023,83,-20.01,57.66,77,8.05
623,tuatapere,31,NZ,1573665023,95,-46.13,167.69,42.01,3.2
624,burnie,100,AU,1573665023,95,-41.05,145.91,52,5.99
625,safonovo,83,RU,1573665023,84,55.11,33.24,41.38,10.92
